[{"city": "Abasolo", "city_ascii": "Abasolo", "lat": "20.4511", "lng": "-101.5289", "country": "Mexico", "iso2": "MX", "iso3": "MEX", "admin_name": "Guanajuato", "capital": "minor", "population": "27389", "id": "1484064616"}, {"city": "Abasolo", "city_ascii": "Abasolo", "lat": "24.0559", "lng": "-98.3733", "country": "Mexico", "iso2": "MX", "iso3": "MEX", "admin_name": "Tamaulipas", "capital": "minor", "population": "11862", "id": "1484491384"}, {"city": "Abbeville", "city_ascii": "Abbeville", "lat": "50.1058", "lng": "1.8358", "country": "France", "iso2": "FR", "iso3": "FRA", "admin_name": "Hauts-de-France", "capital": "minor", "population": "22946", "id": "1250376759"}, {"city": "Abbeville", "city_ascii": "Abbeville", "lat": "29.9750", "lng": "-92.1265", "country": "United States", "iso2": "US", "iso3": "USA", "admin_name": "Louisiana", "capital": "", "population": "19470", "id": "1840014005"}, {"city": "Abbeville", "city_ascii": "Abbeville", "lat": "34.1787", "lng": "-82.3774", "country": "United States", "iso2": "US", "iso3": "USA", "admin_name": "South Carolina", "capital": "", "population": "5019", "id": "1840013618"}, {"city": "Aberdeen", "city_ascii": "Aberdeen", "lat": "57.1500", "lng": "-2.1100", "country": "United Kingdom", "iso2": "GB", "iso3": "GBR", "admin_name": "Aberdeen City", "capital": "", "population": "214610", "id": "1826324306"}, {"city": "Aberdeen", "city_ascii": "Aberdeen", "lat": "46.9757", "lng": "-123.8094", "country": "United States", "iso2": "US", "iso3": "USA", "admin_name": "Washington", "capital": "", "population": "29609", "id": "1840018446"}, {"city": "Aberdeen", "city_ascii": "Aberdeen", "lat": "45.4646", "lng": "-98.4680", "country": "United States", "iso2": "US", "iso3": "USA", "admin_name": "South Dakota", "capital": "", "population": "28257", "id": "1840002032"}, {"city": "Aberdeen", "city_ascii": "Aberdeen", "lat": "40.4165", "lng": "-74.2249", "country": "United States", "iso2": "US", "iso3": "USA", "admin_name": "New Jersey", "capital": "", "population": "18540", "id": "1840081652"}, {"city": "Aberdeen", "city_ascii": "Aberdeen", "lat": "39.5146", "lng": "-76.1730", "country": "United States", "iso2": "US", "iso3": "USA", "admin_name": "Maryland", "capital": "", "population": "16019", "id": "1840005666"}, {"city": "Aberdeen", "city_ascii": "Aberdeen", "lat": "35.1350", "lng": "-79.4326", "country": "United States", "iso2": "US", "iso3": "USA", "admin_name": "North Carolina", "capital": "", "population": "7988", "id": "1840015433"}, {"city": "Aberdeen", "city_ascii": "Aberdeen", "lat": "33.8287", "lng": "-88.5539", "country": "United States", "iso2": "US", "iso3": "USA", "admin_name": "Mississippi", "capital": "", "population": "5205", "id": "1840013685"}, {"city": "Abilene", "city_ascii": "Abilene", "lat": "32.4543", "lng": "-99.7384", "country": "United States", "iso2": "US", "iso3": "USA", "admin_name": "Texas", "capital": "", "population": "123420", "id": "1840019476"}, {"city": "Abilene", "city_ascii": "Abilene", "lat": "38.9229", "lng": "-97.2251", "country": "United States", "iso2": "US", "iso3": "USA", "admin_name": "Kansas", "capital": "", "population": "6390", "id": "1840001629"}, {"city": "Abingdon", "city_ascii": "Abingdon", "lat": "51.6670", "lng": "-1.2830", "country": "United Kingdom", "iso2": "GB", "iso3": "GBR", "admin_name": "Oxfordshire", "capital": "", "population": "39809", "id": "1826918722"}, {"city": "Abingdon", "city_ascii": "Abingdon", "lat": "36.7089", "lng": "-81.9713", "country": "United States", "iso2": "US", "iso3": "USA", "admin_name": "Virginia", "capital": "", "population": "7867", "id": "1840006529"}, {"city": "Abington", "city_ascii": "Abington", "lat": "40.1108", "lng": "-75.1146", "country": "United States", "iso2": "US", "iso3": "USA", "admin_name": "Pennsylvania", "capital": "", "population": "55459", "id": "1840035369"}, {"city": "Abington", "city_ascii": "Abington", "lat": "42.1180", "lng": "-70.9590", "country": "United States", "iso2": "US", "iso3": "USA", "admin_name": "Massachusetts", "capital": "", "population": "16436", "id": "1840053564"}, {"city": "Acatl\u00e1n", "city_ascii": "Acatlan", "lat": "20.4242", "lng": "-103.6014", "country": "Mexico", "iso2": "MX", "iso3": "MEX", "admin_name": "Jalisco", "capital": "minor", "population": "22261", "id": "1484516807"}, {"city": "Acatl\u00e1n", "city_ascii": "Acatlan", "lat": "20.1444", "lng": "-98.4383", "country": "Mexico", "iso2": "MX", "iso3": "MEX", "admin_name": "Hidalgo", "capital": "minor", "population": "17914", "id": "1484652472"}, {"city": "Acton", "city_ascii": "Acton", "lat": "51.5135", "lng": "-0.2707", "country": "United Kingdom", "iso2": "GB", "iso3": "GBR", "admin_name": "Ealing", "capital": "", "population": "62480", "id": "1826793320"}, {"city": "Acton", "city_ascii": "Acton", "lat": "42.4843", "lng": "-71.4378", "country": "United States", "iso2": "US", "iso3": "USA", "admin_name": "Massachusetts", "capital": "", "population": "23627", "id": "1840053471"}, {"city": "Acton", "city_ascii": "Acton", "lat": "34.4956", "lng": "-118.1857", "country": "United States", "iso2": "US", "iso3": "USA", "admin_name": "California", "capital": "", "population": "7232", "id": "1840017917"}, {"city": "Actopan", "city_ascii": "Actopan", "lat": "20.2670", "lng": "-98.9330", "country": "Mexico", "iso2": "MX", "iso3": "MEX", "admin_name": "Hidalgo", "capital": "", "population": "56429", "id": "1484903562"}, {"city": "Actopan", "city_ascii": "Actopan", "lat": "19.5036", "lng": "-96.6192", "country": "Mexico", "iso2": "MX", "iso3": "MEX", "admin_name": "Veracruz", "capital": "minor", "population": "43388", "id": "1484594634"}, {"city": "Ada", "city_ascii": "Ada", "lat": "34.7683", "lng": "-96.6689", "country": "United States", "iso2": "US", "iso3": "USA", "admin_name": "Oklahoma", "capital": "", "population": "17840", "id": "1840019191"}, {"city": "Ada", "city_ascii": "Ada", "lat": "45.8014", "lng": "20.1222", "country": "Serbia", "iso2": "RS", "iso3": "SRB", "admin_name": "Ada", "capital": "admin", "population": "10547", "id": "1688687750"}, {"city": "Ada", "city_ascii": "Ada", "lat": "40.7681", "lng": "-83.8253", "country": "United States", "iso2": "US", "iso3": "USA", "admin_name": "Ohio", "capital": "", "population": "5544", "id": "1840010371"}, {"city": "Adams", "city_ascii": "Adams", "lat": "40.7092", "lng": "-80.0120", "country": "United States", "iso2": "US", "iso3": "USA", "admin_name": "Pennsylvania", "capital": "", "population": "13643", "id": "1840149061"}, {"city": "Adams", "city_ascii": "Adams", "lat": "42.6269", "lng": "-73.1187", "country": "United States", "iso2": "US", "iso3": "USA", "admin_name": "Massachusetts", "capital": "", "population": "8125", "id": "1840053644"}, {"city": "Adams", "city_ascii": "Adams", "lat": "40.2876", "lng": "-78.7452", "country": "United States", "iso2": "US", "iso3": "USA", "admin_name": "Pennsylvania", "capital": "", "population": "5640", "id": "1840145840"}, {"city": "Adams", "city_ascii": "Adams", "lat": "43.8511", "lng": "-76.0379", "country": "United States", "iso2": "US", "iso3": "USA", "admin_name": "New York", "capital": "", "population": "5068", "id": "1840004119"}, {"city": "Addison", "city_ascii": "Addison", "lat": "41.9314", "lng": "-88.0085", "country": "United States", "iso2": "US", "iso3": "USA", "admin_name": "Illinois", "capital": "", "population": "36482", "id": "1840010171"}, {"city": "Addison", "city_ascii": "Addison", "lat": "32.9590", "lng": "-96.8355", "country": "United States", "iso2": "US", "iso3": "USA", "admin_name": "Texas", "capital": "", "population": "16263", "id": "1840022057"}, {"city": "Adel", "city_ascii": "Adel", "lat": "53.8489", "lng": "-1.5849", "country": "United Kingdom", "iso2": "GB", "iso3": "GBR", "admin_name": "Leeds", "capital": "", "population": "19430", "id": "1826917092"}, {"city": "Adel", "city_ascii": "Adel", "lat": "31.1272", "lng": "-83.4232", "country": "United States", "iso2": "US", "iso3": "USA", "admin_name": "Georgia", "capital": "", "population": "6989", "id": "1840013879"}, {"city": "Adel", "city_ascii": "Adel", "lat": "41.6121", "lng": "-94.0129", "country": "United States", "iso2": "US", "iso3": "USA", "admin_name": "Iowa", "capital": "", "population": "5455", "id": "1840007053"}, {"city": "A\u011fdam", "city_ascii": "Agdam", "lat": "39.9833", "lng": "46.9167", "country": "Azerbaijan", "iso2": "AZ", "iso3": "AZE", "admin_name": "A\u011fdam", "capital": "admin", "population": "3770", "id": "1031176858"}, {"city": "A\u011fdam", "city_ascii": "Agdam", "lat": "40.9053", "lng": "45.5564", "country": "Azerbaijan", "iso2": "AZ", "iso3": "AZE", "admin_name": "Tovuz", "capital": "", "population": "0", "id": "1031834023"}, {"city": "Aginskoye", "city_ascii": "Aginskoye", "lat": "51.1031", "lng": "114.5228", "country": "Russia", "iso2": "RU", "iso3": "RUS", "admin_name": "Zabaykal\u2019skiy Kray", "capital": "", "population": "11491", "id": "1643514234"}, {"city": "Aginskoye", "city_ascii": "Aginskoye", "lat": "55.2606", "lng": "94.9144", "country": "Russia", "iso2": "RU", "iso3": "RUS", "admin_name": "Krasnoyarskiy Kray", "capital": "", "population": "5584", "id": "1643901025"}, {"city": "\u00c1gua Branca", "city_ascii": "Agua Branca", "lat": "-9.2608", "lng": "-37.9361", "country": "Brazil", "iso2": "BR", "iso3": "BRA", "admin_name": "Alagoas", "capital": "", "population": "20467", "id": "1076362239"}, {"city": "\u00c1gua Branca", "city_ascii": "Agua Branca", "lat": "-5.8900", "lng": "-42.6378", "country": "Brazil", "iso2": "BR", "iso3": "BRA", "admin_name": "Piau\u00ed", "capital": "", "population": "17470", "id": "1076724006"}, {"city": "\u00c1gua Branca", "city_ascii": "Agua Branca", "lat": "-7.5119", "lng": "-37.6408", "country": "Brazil", "iso2": "BR", "iso3": "BRA", "admin_name": "Para\u00edba", "capital": "", "population": "10083", "id": "1076930079"}, {"city": "Aguilar", "city_ascii": "Aguilar", "lat": "15.8899", "lng": "120.2379", "country": "Philippines", "iso2": "PH", "iso3": "PHL", "admin_name": "Pangasinan", "capital": "", "population": "41463", "id": "1608688044"}, {"city": "Aguilar", "city_ascii": "Aguilar", "lat": "37.5167", "lng": "-4.6500", "country": "Spain", "iso2": "ES", "iso3": "ESP", "admin_name": "Andalusia", "capital": "", "population": "13382", "id": "1724391215"}, {"city": "Airdrie", "city_ascii": "Airdrie", "lat": "51.2917", "lng": "-114.0144", "country": "Canada", "iso2": "CA", "iso3": "CAN", "admin_name": "Alberta", "capital": "", "population": "61581", "id": "1124990202"}, {"city": "Airdrie", "city_ascii": "Airdrie", "lat": "55.8600", "lng": "-3.9800", "country": "United Kingdom", "iso2": "GB", "iso3": "GBR", "admin_name": "North Lanarkshire", "capital": "", "population": "36620", "id": "1826889162"}, {"city": "Aksay", "city_ascii": "Aksay", "lat": "47.2667", "lng": "39.8667", "country": "Russia", "iso2": "RU", "iso3": "RUS", "admin_name": "Rostovskaya Oblast\u2019", "capital": "minor", "population": "46018", "id": "1643659025"}, {"city": "Aksay", "city_ascii": "Aksay", "lat": "51.1714", "lng": "53.0349", "country": "Kazakhstan", "iso2": "KZ", "iso3": "KAZ", "admin_name": "Batys Qazaqstan", "capital": "", "population": "34799", "id": "1398621920"}, {"city": "Al Bay\u1e11\u0101\u2019", "city_ascii": "Al Bayda'", "lat": "32.7628", "lng": "21.7550", "country": "Libya", "iso2": "LY", "iso3": "LBY", "admin_name": "Al Jabal al Akh\u1e11ar", "capital": "admin", "population": "250000", "id": "1434263017"}, {"city": "Al Bay\u1e11\u0101\u2019", "city_ascii": "Al Bayda'", "lat": "13.9790", "lng": "45.5740", "country": "Yemen", "iso2": "YE", "iso3": "YEM", "admin_name": "Al Bay\u1e11\u0101\u2019", "capital": "admin", "population": "37821", "id": "1887788283"}, {"city": "Al \u1e28illah", "city_ascii": "Al Hillah", "lat": "23.4895", "lng": "46.7564", "country": "Saudi Arabia", "iso2": "SA", "iso3": "SAU", "admin_name": "Ar Riy\u0101\u1e11", "capital": "", "population": "594605", "id": "1682494753"}, {"city": "Al \u1e28illah", "city_ascii": "Al Hillah", "lat": "32.4833", "lng": "44.4333", "country": "Iraq", "iso2": "IQ", "iso3": "IRQ", "admin_name": "B\u0101bil", "capital": "admin", "population": "541034", "id": "1368916692"}, {"city": "Al Qu\u015fayr", "city_ascii": "Al Qusayr", "lat": "34.5089", "lng": "36.5797", "country": "Syria", "iso2": "SY", "iso3": "SYR", "admin_name": "\u1e28im\u015f", "capital": "minor", "population": "46772", "id": "1760157542"}, {"city": "Al Qu\u015fayr", "city_ascii": "Al Qusayr", "lat": "26.1091", "lng": "34.2760", "country": "Egypt", "iso2": "EG", "iso3": "EGY", "admin_name": "Al Ba\u1e29r al A\u1e29mar", "capital": "", "population": "24344", "id": "1818907954"}, {"city": "Alameda", "city_ascii": "Alameda", "lat": "37.7670", "lng": "-122.2672", "country": "United States", "iso2": "US", "iso3": "USA", "admin_name": "California", "capital": "", "population": "77624", "id": "1840018913"}, {"city": "Alameda", "city_ascii": "Alameda", "lat": "37.2000", "lng": "-4.6500", "country": "Spain", "iso2": "ES", "iso3": "ESP", "admin_name": "Andalusia", "capital": "", "population": "5387", "id": "1724650098"}, {"city": "Alaminos", "city_ascii": "Alaminos", "lat": "16.1553", "lng": "119.9808", "country": "Philippines", "iso2": "PH", "iso3": "PHL", "admin_name": "Pangasinan", "capital": "", "population": "89708", "id": "1608828653"}, {"city": "Alaminos", "city_ascii": "Alaminos", "lat": "14.0635", "lng": "121.2451", "country": "Philippines", "iso2": "PH", "iso3": "PHL", "admin_name": "Laguna", "capital": "", "population": "47859", "id": "1608904750"}, {"city": "\u00c1lamo", "city_ascii": "Alamo", "lat": "20.9167", "lng": "-97.6750", "country": "Mexico", "iso2": "MX", "iso3": "MEX", "admin_name": "Veracruz", "capital": "minor", "population": "25159", "id": "1484161565"}, {"city": "Alamo", "city_ascii": "Alamo", "lat": "26.1811", "lng": "-98.1177", "country": "United States", "iso2": "US", "iso3": "USA", "admin_name": "Texas", "capital": "", "population": "19910", "id": "1840019732"}, {"city": "Alamo", "city_ascii": "Alamo", "lat": "37.8546", "lng": "-122.0130", "country": "United States", "iso2": "US", "iso3": "USA", "admin_name": "California", "capital": "", "population": "14905", "id": "1840017609"}, {"city": "Albany", "city_ascii": "Albany", "lat": "42.6664", "lng": "-73.7987", "country": "United States", "iso2": "US", "iso3": "USA", "admin_name": "New York", "capital": "admin", "population": "586383", "id": "1840000417"}, {"city": "Albany", "city_ascii": "Albany", "lat": "31.5776", "lng": "-84.1762", "country": "United States", "iso2": "US", "iso3": "USA", "admin_name": "Georgia", "capital": "", "population": "89217", "id": "1840013864"}, {"city": "Albany", "city_ascii": "Albany", "lat": "44.6274", "lng": "-123.0966", "country": "United States", "iso2": "US", "iso3": "USA", "admin_name": "Oregon", "capital": "", "population": "62880", "id": "1840018605"}, {"city": "Albany", "city_ascii": "Albany", "lat": "-35.0228", "lng": "117.8814", "country": "Australia", "iso2": "AU", "iso3": "AUS", "admin_name": "Western Australia", "capital": "", "population": "34205", "id": "1036047365"}, {"city": "Albany", "city_ascii": "Albany", "lat": "37.8898", "lng": "-122.3018", "country": "United States", "iso2": "US", "iso3": "USA", "admin_name": "California", "capital": "", "population": "19696", "id": "1840028140"}, {"city": "Albertville", "city_ascii": "Albertville", "lat": "34.2634", "lng": "-86.2107", "country": "United States", "iso2": "US", "iso3": "USA", "admin_name": "Alabama", "capital": "", "population": "37775", "id": "1840013599"}, {"city": "Albertville", "city_ascii": "Albertville", "lat": "45.6758", "lng": "6.3925", "country": "France", "iso2": "FR", "iso3": "FRA", "admin_name": "Auvergne-Rh\u00f4ne-Alpes", "capital": "minor", "population": "19214", "id": "1250427117"}, {"city": "Albertville", "city_ascii": "Albertville", "lat": "45.2364", "lng": "-93.6618", "country": "United States", "iso2": "US", "iso3": "USA", "admin_name": "Minnesota", "capital": "", "population": "7539", "id": "1840006706"}, {"city": "Albion", "city_ascii": "Albion", "lat": "42.2478", "lng": "-84.7572", "country": "United States", "iso2": "US", "iso3": "USA", "admin_name": "Michigan", "capital": "", "population": "8990", "id": "1840003175"}, {"city": "Albion", "city_ascii": "Albion", "lat": "43.2460", "lng": "-78.1902", "country": "United States", "iso2": "US", "iso3": "USA", "admin_name": "New York", "capital": "", "population": "7738", "id": "1840004265"}, {"city": "Alburquerque", "city_ascii": "Alburquerque", "lat": "9.6104", "lng": "123.9549", "country": "Philippines", "iso2": "PH", "iso3": "PHL", "admin_name": "Bohol", "capital": "", "population": "10540", "id": "1608280390"}, {"city": "Alburquerque", "city_ascii": "Alburquerque", "lat": "39.2167", "lng": "-7.0000", "country": "Spain", "iso2": "ES", "iso3": "ESP", "admin_name": "Extremadura", "capital": "", "population": "5293", "id": "1724602614"}, {"city": "Alcala", "city_ascii": "Alcala", "lat": "15.8468", "lng": "120.5218", "country": "Philippines", "iso2": "PH", "iso3": "PHL", "admin_name": "Pangasinan", "capital": "", "population": "43402", "id": "1608910031"}, {"city": "Alcala", "city_ascii": "Alcala", "lat": "17.9031", "lng": "121.6590", "country": "Philippines", "iso2": "PH", "iso3": "PHL", "admin_name": "Cagayan", "capital": "", "population": "38883", "id": "1608450739"}, {"city": "Alcal\u00e1", "city_ascii": "Alcala", "lat": "4.6736", "lng": "-75.7825", "country": "Colombia", "iso2": "CO", "iso3": "COL", "admin_name": "Valle del Cauca", "capital": "minor", "population": "23195", "id": "1170054347"}, {"city": "Alc\u00e2ntara", "city_ascii": "Alcantara", "lat": "-2.4089", "lng": "-44.4150", "country": "Brazil", "iso2": "BR", "iso3": "BRA", "admin_name": "Maranh\u00e3o", "capital": "", "population": "21851", "id": "1076650057"}, {"city": "Alcantara", "city_ascii": "Alcantara", "lat": "12.2584", "lng": "122.0543", "country": "Philippines", "iso2": "PH", "iso3": "PHL", "admin_name": "Romblon", "capital": "", "population": "16351", "id": "1608033218"}, {"city": "Alcantara", "city_ascii": "Alcantara", "lat": "9.9715", "lng": "123.4047", "country": "Philippines", "iso2": "PH", "iso3": "PHL", "admin_name": "Cebu", "capital": "minor", "population": "15160", "id": "1608085067"}, {"city": "Alcoy", "city_ascii": "Alcoy", "lat": "38.6983", "lng": "-0.4736", "country": "Spain", "iso2": "ES", "iso3": "ESP", "admin_name": "Valencia", "capital": "", "population": "59354", "id": "1724702362"}, {"city": "Alcoy", "city_ascii": "Alcoy", "lat": "9.7082", "lng": "123.5060", "country": "Philippines", "iso2": "PH", "iso3": "PHL", "admin_name": "Cebu", "capital": "", "population": "16979", "id": "1608968544"}, {"city": "Aldama", "city_ascii": "Aldama", "lat": "28.8386", "lng": "-105.9111", "country": "Mexico", "iso2": "MX", "iso3": "MEX", "admin_name": "Chihuahua", "capital": "minor", "population": "24761", "id": "1484197521"}, {"city": "Aldama", "city_ascii": "Aldama", "lat": "22.9194", "lng": "-98.0736", "country": "Mexico", "iso2": "MX", "iso3": "MEX", "admin_name": "Tamaulipas", "capital": "minor", "population": "13661", "id": "1484835121"}, {"city": "Alegria", "city_ascii": "Alegria", "lat": "9.7243", "lng": "123.3402", "country": "Philippines", "iso2": "PH", "iso3": "PHL", "admin_name": "Cebu", "capital": "", "population": "23300", "id": "1608812207"}, {"city": "Alegria", "city_ascii": "Alegria", "lat": "9.4640", "lng": "125.5765", "country": "Philippines", "iso2": "PH", "iso3": "PHL", "admin_name": "Surigao del Norte", "capital": "", "population": "16011", "id": "1608913712"}, {"city": "Alexandria", "city_ascii": "Alexandria", "lat": "31.2000", "lng": "29.9167", "country": "Egypt", "iso2": "EG", "iso3": "EGY", "admin_name": "Al Iskandar\u012byah", "capital": "admin", "population": "4870000", "id": "1818695837"}, {"city": "Alexandria", "city_ascii": "Alexandria", "lat": "38.8185", "lng": "-77.0861", "country": "United States", "iso2": "US", "iso3": "USA", "admin_name": "Virginia", "capital": "", "population": "159428", "id": "1840003837"}, {"city": "Alexandria", "city_ascii": "Alexandria", "lat": "31.2923", "lng": "-92.4702", "country": "United States", "iso2": "US", "iso3": "USA", "admin_name": "Louisiana", "capital": "", "population": "80129", "id": "1840013873"}, {"city": "Alexandria", "city_ascii": "Alexandria", "lat": "43.9686", "lng": "25.3333", "country": "Romania", "iso2": "RO", "iso3": "ROU", "admin_name": "Teleorman", "capital": "admin", "population": "45434", "id": "1642953190"}, {"city": "Alexandria", "city_ascii": "Alexandria", "lat": "45.8777", "lng": "-95.3766", "country": "United States", "iso2": "US", "iso3": "USA", "admin_name": "Minnesota", "capital": "", "population": "21204", "id": "1840006680"}, {"city": "Alexandria", "city_ascii": "Alexandria", "lat": "-6.4128", "lng": "-38.0158", "country": "Brazil", "iso2": "BR", "iso3": "BRA", "admin_name": "Rio Grande do Norte", "capital": "", "population": "13553", "id": "1076254681"}, {"city": "Alexandria", "city_ascii": "Alexandria", "lat": "55.9800", "lng": "-4.5800", "country": "United Kingdom", "iso2": "GB", "iso3": "GBR", "admin_name": "West Dunbartonshire", "capital": "", "population": "13444", "id": "1826818723"}, {"city": "Alexandria", "city_ascii": "Alexandria", "lat": "38.9621", "lng": "-84.3860", "country": "United States", "iso2": "US", "iso3": "USA", "admin_name": "Kentucky", "capital": "", "population": "9715", "id": "1840013162"}, {"city": "Algeciras", "city_ascii": "Algeciras", "lat": "36.1275", "lng": "-5.4539", "country": "Spain", "iso2": "ES", "iso3": "ESP", "admin_name": "Andalusia", "capital": "", "population": "123078", "id": "1724355681"}, {"city": "Algeciras", "city_ascii": "Algeciras", "lat": "2.5219", "lng": "-75.3144", "country": "Colombia", "iso2": "CO", "iso3": "COL", "admin_name": "Huila", "capital": "minor", "population": "24708", "id": "1170438880"}, {"city": "Alia\u011fa", "city_ascii": "Aliaga", "lat": "38.7998", "lng": "26.9720", "country": "Turkey", "iso2": "TR", "iso3": "TUR", "admin_name": "\u0130zmir", "capital": "minor", "population": "95392", "id": "1792034311"}, {"city": "Aliaga", "city_ascii": "Aliaga", "lat": "15.4988", "lng": "120.8410", "country": "Philippines", "iso2": "PH", "iso3": "PHL", "admin_name": "Nueva Ecija", "capital": "", "population": "63543", "id": "1608044866"}, {"city": "Alicia", "city_ascii": "Alicia", "lat": "16.7787", "lng": "121.6972", "country": "Philippines", "iso2": "PH", "iso3": "PHL", "admin_name": "Isabela", "capital": "", "population": "71504", "id": "1608136235"}, {"city": "Alicia", "city_ascii": "Alicia", "lat": "7.5060", "lng": "122.9412", "country": "Philippines", "iso2": "PH", "iso3": "PHL", "admin_name": "Zamboanga Sibugay", "capital": "", "population": "36013", "id": "1608675842"}, {"city": "Alicia", "city_ascii": "Alicia", "lat": "9.8957", "lng": "124.4415", "country": "Philippines", "iso2": "PH", "iso3": "PHL", "admin_name": "Bohol", "capital": "", "population": "23517", "id": "1608855246"}, {"city": "Allegheny", "city_ascii": "Allegheny", "lat": "40.6151", "lng": "-79.6439", "country": "United States", "iso2": "US", "iso3": "USA", "admin_name": "Pennsylvania", "capital": "", "population": "8091", "id": "1840151149"}, {"city": "Allegheny", "city_ascii": "Allegheny", "lat": "40.4583", "lng": "-78.4768", "country": "United States", "iso2": "US", "iso3": "USA", "admin_name": "Pennsylvania", "capital": "", "population": "6553", "id": "1840152336"}, {"city": "Allen", "city_ascii": "Allen", "lat": "33.1088", "lng": "-96.6735", "country": "United States", "iso2": "US", "iso3": "USA", "admin_name": "Texas", "capital": "", "population": "105623", "id": "1840019396"}, {"city": "Allen", "city_ascii": "Allen", "lat": "12.5013", "lng": "124.2820", "country": "Philippines", "iso2": "PH", "iso3": "PHL", "admin_name": "Northern Samar", "capital": "", "population": "25469", "id": "1608146334"}, {"city": "Allen", "city_ascii": "Allen", "lat": "-38.9772", "lng": "-67.8272", "country": "Argentina", "iso2": "AR", "iso3": "ARG", "admin_name": "R\u00edo Negro", "capital": "", "population": "22859", "id": "1032144191"}, {"city": "Allendale", "city_ascii": "Allendale", "lat": "42.9851", "lng": "-85.9509", "country": "United States", "iso2": "US", "iso3": "USA", "admin_name": "Michigan", "capital": "", "population": "21672", "id": "1840004345"}, {"city": "Allendale", "city_ascii": "Allendale", "lat": "41.0333", "lng": "-74.1333", "country": "United States", "iso2": "US", "iso3": "USA", "admin_name": "New Jersey", "capital": "", "population": "6734", "id": "1840003550"}, {"city": "Alliance", "city_ascii": "Alliance", "lat": "40.9107", "lng": "-81.1189", "country": "United States", "iso2": "US", "iso3": "USA", "admin_name": "Ohio", "capital": "", "population": "31255", "id": "1840000962"}, {"city": "Alliance", "city_ascii": "Alliance", "lat": "42.1025", "lng": "-102.8766", "country": "United States", "iso2": "US", "iso3": "USA", "admin_name": "Nebraska", "capital": "", "population": "8092", "id": "1840006975"}, {"city": "Alma", "city_ascii": "Alma", "lat": "48.5500", "lng": "-71.6500", "country": "Canada", "iso2": "CA", "iso3": "CAN", "admin_name": "Quebec", "capital": "", "population": "30904", "id": "1124138438"}, {"city": "Alma", "city_ascii": "Alma", "lat": "43.3800", "lng": "-84.6556", "country": "United States", "iso2": "US", "iso3": "USA", "admin_name": "Michigan", "capital": "", "population": "16035", "id": "1840002879"}, {"city": "Alma", "city_ascii": "Alma", "lat": "35.4919", "lng": "-94.2165", "country": "United States", "iso2": "US", "iso3": "USA", "admin_name": "Arkansas", "capital": "", "population": "5864", "id": "1840013420"}, {"city": "Almagro", "city_ascii": "Almagro", "lat": "11.9108", "lng": "124.2852", "country": "Philippines", "iso2": "PH", "iso3": "PHL", "admin_name": "Samar", "capital": "", "population": "8942", "id": "1608267193"}, {"city": "Almagro", "city_ascii": "Almagro", "lat": "38.8878", "lng": "-3.7122", "country": "Spain", "iso2": "ES", "iso3": "ESP", "admin_name": "Castille-La Mancha", "capital": "", "population": "8905", "id": "1724161420"}, {"city": "Almenara", "city_ascii": "Almenara", "lat": "-16.1833", "lng": "-40.7000", "country": "Brazil", "iso2": "BR", "iso3": "BRA", "admin_name": "Minas Gerais", "capital": "", "population": "41552", "id": "1076953924"}, {"city": "Almenara", "city_ascii": "Almenara", "lat": "39.7533", "lng": "-0.2256", "country": "Spain", "iso2": "ES", "iso3": "ESP", "admin_name": "Valencia", "capital": "", "population": "6090", "id": "1724587561"}, {"city": "Almer\u00eda", "city_ascii": "Almeria", "lat": "36.8403", "lng": "-2.4681", "country": "Spain", "iso2": "ES", "iso3": "ESP", "admin_name": "Andalusia", "capital": "minor", "population": "201322", "id": "1724745640"}, {"city": "Almeria", "city_ascii": "Almeria", "lat": "11.6206", "lng": "124.3794", "country": "Philippines", "iso2": "PH", "iso3": "PHL", "admin_name": "Biliran", "capital": "", "population": "16951", "id": "1608711562"}, {"city": "Alpine", "city_ascii": "Alpine", "lat": "32.8439", "lng": "-116.7585", "country": "United States", "iso2": "US", "iso3": "USA", "admin_name": "California", "capital": "", "population": "14878", "id": "1840018014"}, {"city": "Alpine", "city_ascii": "Alpine", "lat": "40.4629", "lng": "-111.7724", "country": "United States", "iso2": "US", "iso3": "USA", "admin_name": "Utah", "capital": "", "population": "10498", "id": "1840018755"}, {"city": "Alpine", "city_ascii": "Alpine", "lat": "30.3640", "lng": "-103.6650", "country": "United States", "iso2": "US", "iso3": "USA", "admin_name": "Texas", "capital": "", "population": "6090", "id": "1840019580"}, {"city": "Altamira", "city_ascii": "Altamira", "lat": "-3.2028", "lng": "-52.2058", "country": "Brazil", "iso2": "BR", "iso3": "BRA", "admin_name": "Par\u00e1", "capital": "", "population": "115969", "id": "1076710878"}, {"city": "Altamira", "city_ascii": "Altamira", "lat": "22.3375", "lng": "-97.8694", "country": "Mexico", "iso2": "MX", "iso3": "MEX", "admin_name": "Tamaulipas", "capital": "minor", "population": "59536", "id": "1484764524"}, {"city": "Altay", "city_ascii": "Altay", "lat": "47.8666", "lng": "88.1166", "country": "China", "iso2": "CN", "iso3": "CHN", "admin_name": "Xinjiang", "capital": "minor", "population": "142000", "id": "1156855629"}, {"city": "Altay", "city_ascii": "Altay", "lat": "46.3728", "lng": "96.2572", "country": "Mongolia", "iso2": "MN", "iso3": "MNG", "admin_name": "Gov\u012d-Altay", "capital": "admin", "population": "15800", "id": "1496574715"}, {"city": "Altdorf", "city_ascii": "Altdorf", "lat": "48.5667", "lng": "12.1167", "country": "Germany", "iso2": "DE", "iso3": "DEU", "admin_name": "Bavaria", "capital": "", "population": "11215", "id": "1276813399"}, {"city": "Altdorf", "city_ascii": "Altdorf", "lat": "46.8806", "lng": "8.6394", "country": "Switzerland", "iso2": "CH", "iso3": "CHE", "admin_name": "Uri", "capital": "admin", "population": "9401", "id": "1756957308"}, {"city": "Altenstadt", "city_ascii": "Altenstadt", "lat": "50.2856", "lng": "8.9450", "country": "Germany", "iso2": "DE", "iso3": "DEU", "admin_name": "Hesse", "capital": "", "population": "12169", "id": "1276344597"}, {"city": "Altenstadt", "city_ascii": "Altenstadt", "lat": "48.1667", "lng": "10.1167", "country": "Germany", "iso2": "DE", "iso3": "DEU", "admin_name": "Bavaria", "capital": "", "population": "5109", "id": "1276381157"}, {"city": "Alton", "city_ascii": "Alton", "lat": "38.9034", "lng": "-90.1523", "country": "United States", "iso2": "US", "iso3": "USA", "admin_name": "Illinois", "capital": "", "population": "78905", "id": "1840007424"}, {"city": "Alton", "city_ascii": "Alton", "lat": "26.2884", "lng": "-98.3098", "country": "United States", "iso2": "US", "iso3": "USA", "admin_name": "Texas", "capital": "", "population": "18105", "id": "1840019733"}, {"city": "Alton", "city_ascii": "Alton", "lat": "51.1498", "lng": "-0.9769", "country": "United Kingdom", "iso2": "GB", "iso3": "GBR", "admin_name": "Hampshire", "capital": "", "population": "17816", "id": "1826279601"}, {"city": "Alton", "city_ascii": "Alton", "lat": "43.4906", "lng": "-71.2462", "country": "United States", "iso2": "US", "iso3": "USA", "admin_name": "New Hampshire", "capital": "", "population": "5303", "id": "1840054507"}, {"city": "Altoona", "city_ascii": "Altoona", "lat": "40.5082", "lng": "-78.4007", "country": "United States", "iso2": "US", "iso3": "USA", "admin_name": "Pennsylvania", "capital": "", "population": "74829", "id": "1840001080"}, {"city": "Altoona", "city_ascii": "Altoona", "lat": "41.6481", "lng": "-93.4784", "country": "United States", "iso2": "US", "iso3": "USA", "admin_name": "Iowa", "capital": "", "population": "19221", "id": "1840007065"}, {"city": "Altoona", "city_ascii": "Altoona", "lat": "44.8029", "lng": "-91.4385", "country": "United States", "iso2": "US", "iso3": "USA", "admin_name": "Wisconsin", "capital": "", "population": "7870", "id": "1840002295"}, {"city": "Alvarado", "city_ascii": "Alvarado", "lat": "18.7811", "lng": "-95.7572", "country": "Mexico", "iso2": "MX", "iso3": "MEX", "admin_name": "Veracruz", "capital": "minor", "population": "22330", "id": "1484208918"}, {"city": "Alvarado", "city_ascii": "Alvarado", "lat": "4.5672", "lng": "-74.9533", "country": "Colombia", "iso2": "CO", "iso3": "COL", "admin_name": "Tolima", "capital": "minor", "population": "8873", "id": "1170398878"}, {"city": "Alvorada", "city_ascii": "Alvorada", "lat": "-29.9900", "lng": "-51.0839", "country": "Brazil", "iso2": "BR", "iso3": "BRA", "admin_name": "Rio Grande do Sul", "capital": "", "population": "211352", "id": "1076999998"}, {"city": "Alvorada", "city_ascii": "Alvorada", "lat": "-12.4800", "lng": "-49.1250", "country": "Brazil", "iso2": "BR", "iso3": "BRA", "admin_name": "Tocantins", "capital": "", "population": "8396", "id": "1076121080"}, {"city": "Amalfi", "city_ascii": "Amalfi", "lat": "6.9092", "lng": "-75.0767", "country": "Colombia", "iso2": "CO", "iso3": "COL", "admin_name": "Antioquia", "capital": "minor", "population": "22714", "id": "1170542286"}, {"city": "Amalfi", "city_ascii": "Amalfi", "lat": "40.6333", "lng": "14.6028", "country": "Italy", "iso2": "IT", "iso3": "ITA", "admin_name": "Campania", "capital": "", "population": "5102", "id": "1380503863"}, {"city": "Amelia", "city_ascii": "Amelia", "lat": "42.5535", "lng": "12.4168", "country": "Italy", "iso2": "IT", "iso3": "ITA", "admin_name": "Umbria", "capital": "", "population": "11828", "id": "1380920464"}, {"city": "Amelia", "city_ascii": "Amelia", "lat": "39.0229", "lng": "-84.2184", "country": "United States", "iso2": "US", "iso3": "USA", "admin_name": "Ohio", "capital": "", "population": "5039", "id": "1840010681"}, {"city": "Amesbury", "city_ascii": "Amesbury", "lat": "42.8530", "lng": "-70.9446", "country": "United States", "iso2": "US", "iso3": "USA", "admin_name": "Massachusetts", "capital": "", "population": "17532", "id": "1840132383"}, {"city": "Amesbury", "city_ascii": "Amesbury", "lat": "51.1700", "lng": "-1.7700", "country": "United Kingdom", "iso2": "GB", "iso3": "GBR", "admin_name": "Wiltshire", "capital": "", "population": "10724", "id": "1826157369"}, {"city": "Amherst", "city_ascii": "Amherst", "lat": "43.0117", "lng": "-78.7569", "country": "United States", "iso2": "US", "iso3": "USA", "admin_name": "New York", "capital": "", "population": "125509", "id": "1840057194"}, {"city": "Amherst", "city_ascii": "Amherst", "lat": "42.3645", "lng": "-72.5069", "country": "United States", "iso2": "US", "iso3": "USA", "admin_name": "Massachusetts", "capital": "", "population": "39814", "id": "1840053454"}, {"city": "Amherst", "city_ascii": "Amherst", "lat": "41.4022", "lng": "-82.2303", "country": "United States", "iso2": "US", "iso3": "USA", "admin_name": "Ohio", "capital": "", "population": "12219", "id": "1840000640"}, {"city": "Amherst", "city_ascii": "Amherst", "lat": "42.8705", "lng": "-71.6068", "country": "United States", "iso2": "US", "iso3": "USA", "admin_name": "New Hampshire", "capital": "", "population": "11333", "id": "1840054510"}, {"city": "Amherst", "city_ascii": "Amherst", "lat": "45.8167", "lng": "-64.2167", "country": "Canada", "iso2": "CA", "iso3": "CAN", "admin_name": "Nova Scotia", "capital": "", "population": "9550", "id": "1124895094"}, {"city": "Amsterdam", "city_ascii": "Amsterdam", "lat": "52.3667", "lng": "4.8833", "country": "Netherlands", "iso2": "NL", "iso3": "NLD", "admin_name": "Noord-Holland", "capital": "primary", "population": "862965", "id": "1528355309"}, {"city": "Amsterdam", "city_ascii": "Amsterdam", "lat": "42.9420", "lng": "-74.1907", "country": "United States", "iso2": "US", "iso3": "USA", "admin_name": "New York", "capital": "", "population": "21241", "id": "1840000391"}, {"city": "Anadia", "city_ascii": "Anadia", "lat": "40.4333", "lng": "-8.4333", "country": "Portugal", "iso2": "PT", "iso3": "PRT", "admin_name": "Aveiro", "capital": "minor", "population": "29150", "id": "1620362655"}, {"city": "Anadia", "city_ascii": "Anadia", "lat": "-9.6844", "lng": "-36.3042", "country": "Brazil", "iso2": "BR", "iso3": "BRA", "admin_name": "Alagoas", "capital": "", "population": "17818", "id": "1076360866"}, {"city": "Anchieta", "city_ascii": "Anchieta", "lat": "-20.8056", "lng": "-40.6444", "country": "Brazil", "iso2": "BR", "iso3": "BRA", "admin_name": "Esp\u00edrito Santo", "capital": "", "population": "23902", "id": "1076302227"}, {"city": "Anchieta", "city_ascii": "Anchieta", "lat": "-26.5339", "lng": "-53.3308", "country": "Brazil", "iso2": "BR", "iso3": "BRA", "admin_name": "Santa Catarina", "capital": "", "population": "6380", "id": "1076804407"}, {"city": "Anda", "city_ascii": "Anda", "lat": "46.4078", "lng": "125.3252", "country": "China", "iso2": "CN", "iso3": "CHN", "admin_name": "Heilongjiang", "capital": "minor", "population": "520000", "id": "1156142150"}, {"city": "Anda", "city_ascii": "Anda", "lat": "16.2896", "lng": "119.9491", "country": "Philippines", "iso2": "PH", "iso3": "PHL", "admin_name": "Pangasinan", "capital": "", "population": "39504", "id": "1608003034"}, {"city": "Anda", "city_ascii": "Anda", "lat": "9.7420", "lng": "124.5737", "country": "Philippines", "iso2": "PH", "iso3": "PHL", "admin_name": "Bohol", "capital": "minor", "population": "16462", "id": "1608563628"}, {"city": "Anderson", "city_ascii": "Anderson", "lat": "40.0891", "lng": "-85.6893", "country": "United States", "iso2": "US", "iso3": "USA", "admin_name": "Indiana", "capital": "", "population": "85992", "id": "1840007242"}, {"city": "Anderson", "city_ascii": "Anderson", "lat": "34.5211", "lng": "-82.6479", "country": "United States", "iso2": "US", "iso3": "USA", "admin_name": "South Carolina", "capital": "", "population": "78512", "id": "1840013579"}, {"city": "Anderson", "city_ascii": "Anderson", "lat": "40.4497", "lng": "-122.2950", "country": "United States", "iso2": "US", "iso3": "USA", "admin_name": "California", "capital": "", "population": "10630", "id": "1840018733"}, {"city": "Andover", "city_ascii": "Andover", "lat": "51.2080", "lng": "-1.4800", "country": "United Kingdom", "iso2": "GB", "iso3": "GBR", "admin_name": "Hampshire", "capital": "", "population": "38290", "id": "1826277987"}, {"city": "Andover", "city_ascii": "Andover", "lat": "42.6466", "lng": "-71.1651", "country": "United States", "iso2": "US", "iso3": "USA", "admin_name": "Massachusetts", "capital": "", "population": "35816", "id": "1840053666"}, {"city": "Andover", "city_ascii": "Andover", "lat": "45.2571", "lng": "-93.3265", "country": "United States", "iso2": "US", "iso3": "USA", "admin_name": "Minnesota", "capital": "", "population": "33140", "id": "1840006716"}, {"city": "Andover", "city_ascii": "Andover", "lat": "37.6869", "lng": "-97.1354", "country": "United States", "iso2": "US", "iso3": "USA", "admin_name": "Kansas", "capital": "", "population": "13405", "id": "1840007546"}, {"city": "Andover", "city_ascii": "Andover", "lat": "41.0244", "lng": "-74.7283", "country": "United States", "iso2": "US", "iso3": "USA", "admin_name": "New Jersey", "capital": "", "population": "5949", "id": "1840003479"}, {"city": "Anna", "city_ascii": "Anna", "lat": "33.3470", "lng": "-96.5503", "country": "United States", "iso2": "US", "iso3": "USA", "admin_name": "Texas", "capital": "", "population": "19541", "id": "1840019397"}, {"city": "Anna", "city_ascii": "Anna", "lat": "37.4612", "lng": "-89.2388", "country": "United States", "iso2": "US", "iso3": "USA", "admin_name": "Illinois", "capital": "", "population": "5610", "id": "1840007602"}, {"city": "Anori", "city_ascii": "Anori", "lat": "-3.7728", "lng": "-61.6442", "country": "Brazil", "iso2": "BR", "iso3": "BRA", "admin_name": "Amazonas", "capital": "", "population": "19292", "id": "1076651452"}, {"city": "Anor\u00ed", "city_ascii": "Anori", "lat": "7.0736", "lng": "-75.1469", "country": "Colombia", "iso2": "CO", "iso3": "COL", "admin_name": "Antioquia", "capital": "minor", "population": "16447", "id": "1170571922"}, {"city": "Anshan", "city_ascii": "Anshan", "lat": "41.1066", "lng": "122.9895", "country": "China", "iso2": "CN", "iso3": "CHN", "admin_name": "Liaoning", "capital": "", "population": "3645884", "id": "1156901825"}, {"city": "Anshan", "city_ascii": "Anshan", "lat": "39.7119", "lng": "118.9845", "country": "China", "iso2": "CN", "iso3": "CHN", "admin_name": "Hebei", "capital": "", "population": "45804", "id": "1156524522"}, {"city": "Antequera", "city_ascii": "Antequera", "lat": "37.0183", "lng": "-4.5597", "country": "Spain", "iso2": "ES", "iso3": "ESP", "admin_name": "Andalusia", "capital": "", "population": "41318", "id": "1724357550"}, {"city": "Antequera", "city_ascii": "Antequera", "lat": "9.7812", "lng": "123.8975", "country": "Philippines", "iso2": "PH", "iso3": "PHL", "admin_name": "Bohol", "capital": "", "population": "14425", "id": "1608570243"}, {"city": "Anthony", "city_ascii": "Anthony", "lat": "32.0132", "lng": "-106.5984", "country": "United States", "iso2": "US", "iso3": "USA", "admin_name": "New Mexico", "capital": "", "population": "9239", "id": "1840018049"}, {"city": "Anthony", "city_ascii": "Anthony", "lat": "31.9876", "lng": "-106.5933", "country": "United States", "iso2": "US", "iso3": "USA", "admin_name": "Texas", "capital": "", "population": "5352", "id": "1840022138"}, {"city": "Antioch", "city_ascii": "Antioch", "lat": "37.9789", "lng": "-121.7958", "country": "United States", "iso2": "US", "iso3": "USA", "admin_name": "California", "capital": "", "population": "302419", "id": "1840018903"}, {"city": "Antioch", "city_ascii": "Antioch", "lat": "42.4742", "lng": "-88.0721", "country": "United States", "iso2": "US", "iso3": "USA", "admin_name": "Illinois", "capital": "", "population": "14175", "id": "1840010115"}, {"city": "Ant\u00f4nio Carlos", "city_ascii": "Antonio Carlos", "lat": "-21.3178", "lng": "-43.7469", "country": "Brazil", "iso2": "BR", "iso3": "BRA", "admin_name": "Minas Gerais", "capital": "", "population": "11584", "id": "1076945729"}, {"city": "Ant\u00f4nio Carlos", "city_ascii": "Antonio Carlos", "lat": "-27.5169", "lng": "-48.7678", "country": "Brazil", "iso2": "BR", "iso3": "BRA", "admin_name": "Santa Catarina", "capital": "", "population": "8613", "id": "1076302382"}, {"city": "Antrim", "city_ascii": "Antrim", "lat": "54.7173", "lng": "-6.2055", "country": "United Kingdom", "iso2": "GB", "iso3": "GBR", "admin_name": "Antrim and Newtownabbey", "capital": "", "population": "19986", "id": "1826477610"}, {"city": "Antrim", "city_ascii": "Antrim", "lat": "39.7863", "lng": "-77.7220", "country": "United States", "iso2": "US", "iso3": "USA", "admin_name": "Pennsylvania", "capital": "", "population": "15576", "id": "1840148478"}, {"city": "Apple Valley", "city_ascii": "Apple Valley", "lat": "34.5328", "lng": "-117.2104", "country": "United States", "iso2": "US", "iso3": "USA", "admin_name": "California", "capital": "", "population": "73453", "id": "1840021733"}, {"city": "Apple Valley", "city_ascii": "Apple Valley", "lat": "44.7457", "lng": "-93.2006", "country": "United States", "iso2": "US", "iso3": "USA", "admin_name": "Minnesota", "capital": "", "population": "55135", "id": "1840006768"}, {"city": "Apple Valley", "city_ascii": "Apple Valley", "lat": "40.4389", "lng": "-82.3481", "country": "United States", "iso2": "US", "iso3": "USA", "admin_name": "Ohio", "capital": "", "population": "5337", "id": "1840026491"}, {"city": "Appleton", "city_ascii": "Appleton", "lat": "44.2779", "lng": "-88.3891", "country": "United States", "iso2": "US", "iso3": "USA", "admin_name": "Wisconsin", "capital": "", "population": "220570", "id": "1840002400"}, {"city": "Appleton", "city_ascii": "Appleton", "lat": "53.3508", "lng": "-2.5441", "country": "United Kingdom", "iso2": "GB", "iso3": "GBR", "admin_name": "Warrington", "capital": "", "population": "10265", "id": "1826486906"}, {"city": "Aqs\u016b", "city_ascii": "Aqsu", "lat": "52.0333", "lng": "76.9167", "country": "Kazakhstan", "iso2": "KZ", "iso3": "KAZ", "admin_name": "Pavlodar", "capital": "", "population": "69354", "id": "1398272761"}, {"city": "Aqs\u016b", "city_ascii": "Aqsu", "lat": "52.4502", "lng": "71.9597", "country": "Kazakhstan", "iso2": "KZ", "iso3": "KAZ", "admin_name": "Aqmola", "capital": "", "population": "8543", "id": "1398268556"}, {"city": "Aracoiaba", "city_ascii": "Aracoiaba", "lat": "-4.3708", "lng": "-38.8139", "country": "Brazil", "iso2": "BR", "iso3": "BRA", "admin_name": "Cear\u00e1", "capital": "", "population": "26134", "id": "1076829052"}, {"city": "Ara\u00e7oiaba", "city_ascii": "Aracoiaba", "lat": "-7.7900", "lng": "-35.0908", "country": "Brazil", "iso2": "BR", "iso3": "BRA", "admin_name": "Pernambuco", "capital": "", "population": "20733", "id": "1076400121"}, {"city": "Arad", "city_ascii": "Arad", "lat": "46.1667", "lng": "21.3167", "country": "Romania", "iso2": "RO", "iso3": "ROU", "admin_name": "Arad", "capital": "admin", "population": "159074", "id": "1642996909"}, {"city": "Arad", "city_ascii": "Arad", "lat": "31.2603", "lng": "35.2147", "country": "Israel", "iso2": "IL", "iso3": "ISR", "admin_name": "Southern", "capital": "", "population": "24436", "id": "1376674296"}, {"city": "Ararat", "city_ascii": "Ararat", "lat": "39.8094", "lng": "44.7144", "country": "Armenia", "iso2": "AM", "iso3": "ARG", "admin_name": "Ararat", "capital": "", "population": "20800", "id": "1051804328"}, {"city": "Ararat", "city_ascii": "Ararat", "lat": "-37.2833", "lng": "142.9167", "country": "Australia", "iso2": "AU", "iso3": "AUS", "admin_name": "Victoria", "capital": "", "population": "8300", "id": "1036674088"}, {"city": "Arcadia", "city_ascii": "Arcadia", "lat": "34.1342", "lng": "-118.0373", "country": "United States", "iso2": "US", "iso3": "USA", "admin_name": "California", "capital": "", "population": "57939", "id": "1840019223"}, {"city": "Arcadia", "city_ascii": "Arcadia", "lat": "27.2213", "lng": "-81.8587", "country": "United States", "iso2": "US", "iso3": "USA", "admin_name": "Florida", "capital": "", "population": "19038", "id": "1840014187"}, {"city": "Arcadia", "city_ascii": "Arcadia", "lat": "43.0871", "lng": "-77.0857", "country": "United States", "iso2": "US", "iso3": "USA", "admin_name": "New York", "capital": "", "population": "13649", "id": "1840087174"}, {"city": "Archidona", "city_ascii": "Archidona", "lat": "37.1000", "lng": "-4.3833", "country": "Spain", "iso2": "ES", "iso3": "ESP", "admin_name": "Andalusia", "capital": "", "population": "8168", "id": "1724359957"}, {"city": "Archidona", "city_ascii": "Archidona", "lat": "-0.9167", "lng": "-77.7833", "country": "Ecuador", "iso2": "EC", "iso3": "ECU", "admin_name": "Napo", "capital": "", "population": "5478", "id": "1218000011"}, {"city": "Ardmore", "city_ascii": "Ardmore", "lat": "34.1944", "lng": "-97.1253", "country": "United States", "iso2": "US", "iso3": "USA", "admin_name": "Oklahoma", "capital": "", "population": "24698", "id": "1840019258"}, {"city": "Ardmore", "city_ascii": "Ardmore", "lat": "40.0033", "lng": "-75.2947", "country": "United States", "iso2": "US", "iso3": "USA", "admin_name": "Pennsylvania", "capital": "", "population": "12808", "id": "1840005455"}, {"city": "Ar\u00e8s", "city_ascii": "Ares", "lat": "44.7650", "lng": "-1.1367", "country": "France", "iso2": "FR", "iso3": "FRA", "admin_name": "Nouvelle-Aquitaine", "capital": "", "population": "6349", "id": "1250247212"}, {"city": "Ares", "city_ascii": "Ares", "lat": "43.4278", "lng": "-8.2417", "country": "Spain", "iso2": "ES", "iso3": "ESP", "admin_name": "Galicia", "capital": "", "population": "5829", "id": "1724257957"}, {"city": "Arjona", "city_ascii": "Arjona", "lat": "10.2550", "lng": "-75.3447", "country": "Colombia", "iso2": "CO", "iso3": "COL", "admin_name": "Bol\u00edvar", "capital": "minor", "population": "78070", "id": "1170602407"}, {"city": "Arjona", "city_ascii": "Arjona", "lat": "37.9350", "lng": "-4.0569", "country": "Spain", "iso2": "ES", "iso3": "ESP", "admin_name": "Andalusia", "capital": "", "population": "5515", "id": "1724093494"}, {"city": "Arlington", "city_ascii": "Arlington", "lat": "32.6998", "lng": "-97.1250", "country": "United States", "iso2": "US", "iso3": "USA", "admin_name": "Texas", "capital": "", "population": "398854", "id": "1840019422"}, {"city": "Arlington", "city_ascii": "Arlington", "lat": "38.8786", "lng": "-77.1011", "country": "United States", "iso2": "US", "iso3": "USA", "admin_name": "Virginia", "capital": "", "population": "233464", "id": "1840006112"}, {"city": "Arlington", "city_ascii": "Arlington", "lat": "42.4187", "lng": "-71.1640", "country": "United States", "iso2": "US", "iso3": "USA", "admin_name": "Massachusetts", "capital": "", "population": "45304", "id": "1840053631"}, {"city": "Arlington", "city_ascii": "Arlington", "lat": "48.1698", "lng": "-122.1443", "country": "United States", "iso2": "US", "iso3": "USA", "admin_name": "Washington", "capital": "", "population": "20523", "id": "1840018378"}, {"city": "Arlington", "city_ascii": "Arlington", "lat": "35.2594", "lng": "-89.6680", "country": "United States", "iso2": "US", "iso3": "USA", "admin_name": "Tennessee", "capital": "", "population": "11743", "id": "1840015458"}, {"city": "Arlington Heights", "city_ascii": "Arlington Heights", "lat": "42.0955", "lng": "-87.9825", "country": "United States", "iso2": "US", "iso3": "USA", "admin_name": "Illinois", "capital": "", "population": "74760", "id": "1840011243"}, {"city": "Arlington Heights", "city_ascii": "Arlington Heights", "lat": "41.0039", "lng": "-75.2116", "country": "United States", "iso2": "US", "iso3": "USA", "admin_name": "Pennsylvania", "capital": "", "population": "6129", "id": "1840034849"}, {"city": "Armavir", "city_ascii": "Armavir", "lat": "45.0000", "lng": "41.1167", "country": "Russia", "iso2": "RU", "iso3": "RUS", "admin_name": "Krasnodarskiy Kray", "capital": "", "population": "190709", "id": "1643809754"}, {"city": "Armavir", "city_ascii": "Armavir", "lat": "40.1500", "lng": "44.0400", "country": "Armenia", "iso2": "AM", "iso3": "ARG", "admin_name": "Armavir", "capital": "admin", "population": "38635", "id": "1051878002"}, {"city": "Armenia", "city_ascii": "Armenia", "lat": "4.5389", "lng": "-75.6725", "country": "Colombia", "iso2": "CO", "iso3": "COL", "admin_name": "Quind\u00edo", "capital": "admin", "population": "301226", "id": "1170398459"}, {"city": "Armenia", "city_ascii": "Armenia", "lat": "13.7500", "lng": "-89.5000", "country": "El Salvador", "iso2": "SV", "iso3": "SLV", "admin_name": "Sonsonate", "capital": "", "population": "34912", "id": "1222071319"}, {"city": "Arnold", "city_ascii": "Arnold", "lat": "53.0050", "lng": "-1.1270", "country": "United Kingdom", "iso2": "GB", "iso3": "GBR", "admin_name": "Nottinghamshire", "capital": "", "population": "37768", "id": "1826647385"}, {"city": "Arnold", "city_ascii": "Arnold", "lat": "39.0437", "lng": "-76.4974", "country": "United States", "iso2": "US", "iso3": "USA", "admin_name": "Maryland", "capital": "", "population": "23406", "id": "1840005907"}, {"city": "Arnold", "city_ascii": "Arnold", "lat": "38.4296", "lng": "-90.3733", "country": "United States", "iso2": "US", "iso3": "USA", "admin_name": "Missouri", "capital": "", "population": "21091", "id": "1840007506"}, {"city": "Arona", "city_ascii": "Arona", "lat": "28.0996", "lng": "-16.6809", "country": "Spain", "iso2": "ES", "iso3": "ESP", "admin_name": "Canary Islands", "capital": "", "population": "82777", "id": "1724300501"}, {"city": "Arona", "city_ascii": "Arona", "lat": "45.7569", "lng": "8.5600", "country": "Italy", "iso2": "IT", "iso3": "ITA", "admin_name": "Piedmont", "capital": "", "population": "13966", "id": "1380422638"}, {"city": "Art\u00e1", "city_ascii": "Arta", "lat": "39.6952", "lng": "3.3512", "country": "Spain", "iso2": "ES", "iso3": "ESP", "admin_name": "Balearic Islands", "capital": "", "population": "7984", "id": "1724371845"}, {"city": "Arta", "city_ascii": "Arta", "lat": "11.5264", "lng": "42.8519", "country": "Djibouti", "iso2": "DJ", "iso3": "DJI", "admin_name": "Arta", "capital": "admin", "population": "", "id": "1262889858"}, {"city": "Artesia", "city_ascii": "Artesia", "lat": "33.8676", "lng": "-118.0806", "country": "United States", "iso2": "US", "iso3": "USA", "admin_name": "California", "capital": "", "population": "16601", "id": "1840019224"}, {"city": "Artesia", "city_ascii": "Artesia", "lat": "32.8492", "lng": "-104.4274", "country": "United States", "iso2": "US", "iso3": "USA", "admin_name": "New Mexico", "capital": "", "population": "13956", "id": "1840019443"}, {"city": "\u00c5s", "city_ascii": "As", "lat": "59.6603", "lng": "10.7836", "country": "Norway", "iso2": "NO", "iso3": "NOR", "admin_name": "Akershus", "capital": "minor", "population": "20439", "id": "1578160935"}, {"city": "A\u0161", "city_ascii": "As", "lat": "50.2240", "lng": "12.1951", "country": "Czechia", "iso2": "CZ", "iso3": "CZE", "admin_name": "Karlovarsk\u00fd Kraj", "capital": "", "population": "13105", "id": "1203503000"}, {"city": "Ascensi\u00f3n", "city_ascii": "Ascension", "lat": "-15.6996", "lng": "-63.0800", "country": "Bolivia", "iso2": "BO", "iso3": "BOL", "admin_name": "Santa Cruz", "capital": "", "population": "14429", "id": "1068811738"}, {"city": "Ascensi\u00f3n", "city_ascii": "Ascension", "lat": "31.0928", "lng": "-107.9964", "country": "Mexico", "iso2": "MX", "iso3": "MEX", "admin_name": "Chihuahua", "capital": "minor", "population": "13456", "id": "1484659928"}, {"city": "Ashford", "city_ascii": "Ashford", "lat": "51.1465", "lng": "0.8676", "country": "United Kingdom", "iso2": "GB", "iso3": "GBR", "admin_name": "Kent", "capital": "", "population": "74204", "id": "1826045748"}, {"city": "Ashford", "city_ascii": "Ashford", "lat": "51.4340", "lng": "-0.4640", "country": "United Kingdom", "iso2": "GB", "iso3": "GBR", "admin_name": "Surrey", "capital": "", "population": "27382", "id": "1826203695"}, {"city": "Ashland", "city_ascii": "Ashland", "lat": "37.6942", "lng": "-122.1159", "country": "United States", "iso2": "US", "iso3": "USA", "admin_name": "California", "capital": "", "population": "24430", "id": "1840017619"}, {"city": "Ashland", "city_ascii": "Ashland", "lat": "42.1905", "lng": "-122.6992", "country": "United States", "iso2": "US", "iso3": "USA", "admin_name": "Oregon", "capital": "", "population": "21281", "id": "1840018674"}, {"city": "Ashland", "city_ascii": "Ashland", "lat": "40.8668", "lng": "-82.3156", "country": "United States", "iso2": "US", "iso3": "USA", "admin_name": "Ohio", "capital": "", "population": "20275", "id": "1840002751"}, {"city": "Ashland", "city_ascii": "Ashland", "lat": "38.4592", "lng": "-82.6449", "country": "United States", "iso2": "US", "iso3": "USA", "admin_name": "Kentucky", "capital": "", "population": "20146", "id": "1840013195"}, {"city": "Ashland", "city_ascii": "Ashland", "lat": "42.2573", "lng": "-71.4687", "country": "United States", "iso2": "US", "iso3": "USA", "admin_name": "Massachusetts", "capital": "", "population": "17710", "id": "1840053632"}, {"city": "Ashland", "city_ascii": "Ashland", "lat": "39.8782", "lng": "-75.0085", "country": "United States", "iso2": "US", "iso3": "USA", "admin_name": "New Jersey", "capital": "", "population": "8405", "id": "1840033467"}, {"city": "Ashland", "city_ascii": "Ashland", "lat": "37.7596", "lng": "-77.4715", "country": "United States", "iso2": "US", "iso3": "USA", "admin_name": "Virginia", "capital": "", "population": "7875", "id": "1840006341"}, {"city": "Ashland", "city_ascii": "Ashland", "lat": "46.5801", "lng": "-90.8715", "country": "United States", "iso2": "US", "iso3": "USA", "admin_name": "Wisconsin", "capital": "", "population": "7843", "id": "1840003916"}, {"city": "Ashland", "city_ascii": "Ashland", "lat": "40.7811", "lng": "-76.3451", "country": "United States", "iso2": "US", "iso3": "USA", "admin_name": "Pennsylvania", "capital": "", "population": "7437", "id": "1840002753"}, {"city": "Ashton", "city_ascii": "Ashton", "lat": "53.4897", "lng": "-2.0952", "country": "United Kingdom", "iso2": "GB", "iso3": "GBR", "admin_name": "Tameside", "capital": "", "population": "45198", "id": "1826027715"}, {"city": "Ashton", "city_ascii": "Ashton", "lat": "-44.0330", "lng": "171.7720", "country": "New Zealand", "iso2": "NZ", "iso3": "NZL", "admin_name": "Canterbury", "capital": "", "population": "17700", "id": "1554784264"}, {"city": "Asten", "city_ascii": "Asten", "lat": "51.4031", "lng": "5.7472", "country": "Netherlands", "iso2": "NL", "iso3": "NLD", "admin_name": "Noord-Brabant", "capital": "minor", "population": "16710", "id": "1528132809"}, {"city": "Asten", "city_ascii": "Asten", "lat": "48.2167", "lng": "14.4167", "country": "Austria", "iso2": "AT", "iso3": "AUT", "admin_name": "Ober\u00f6sterreich", "capital": "", "population": "6613", "id": "1040794598"}, {"city": "Astorga", "city_ascii": "Astorga", "lat": "-23.2328", "lng": "-51.6658", "country": "Brazil", "iso2": "BR", "iso3": "BRA", "admin_name": "Paran\u00e1", "capital": "", "population": "26209", "id": "1076827455"}, {"city": "Astorga", "city_ascii": "Astorga", "lat": "42.4589", "lng": "-6.0633", "country": "Spain", "iso2": "ES", "iso3": "ESP", "admin_name": "Castille-Leon", "capital": "", "population": "10741", "id": "1724399849"}, {"city": "Astrakhan", "city_ascii": "Astrakhan", "lat": "46.3333", "lng": "48.0167", "country": "Russia", "iso2": "RU", "iso3": "RUS", "admin_name": "Astrakhanskaya Oblast\u2019", "capital": "admin", "population": "532504", "id": "1643407929"}, {"city": "Astrakhan", "city_ascii": "Astrakhan", "lat": "51.5228", "lng": "69.7950", "country": "Kazakhstan", "iso2": "KZ", "iso3": "KAZ", "admin_name": "Aqmola", "capital": "", "population": "6313", "id": "1398676645"}, {"city": "Athens", "city_ascii": "Athens", "lat": "37.9842", "lng": "23.7281", "country": "Greece", "iso2": "GR", "iso3": "GRC", "admin_name": "Attik\u00ed", "capital": "primary", "population": "664046", "id": "1300715560"}, {"city": "Athens", "city_ascii": "Athens", "lat": "33.9508", "lng": "-83.3689", "country": "United States", "iso2": "US", "iso3": "USA", "admin_name": "Georgia", "capital": "", "population": "141532", "id": "1840029463"}, {"city": "Athens", "city_ascii": "Athens", "lat": "34.7847", "lng": "-86.9510", "country": "United States", "iso2": "US", "iso3": "USA", "admin_name": "Alabama", "capital": "", "population": "31187", "id": "1840000935"}, {"city": "Athens", "city_ascii": "Athens", "lat": "39.3269", "lng": "-82.0988", "country": "United States", "iso2": "US", "iso3": "USA", "admin_name": "Ohio", "capital": "", "population": "29122", "id": "1840007355"}, {"city": "Athens", "city_ascii": "Athens", "lat": "35.4573", "lng": "-84.6045", "country": "United States", "iso2": "US", "iso3": "USA", "admin_name": "Tennessee", "capital": "", "population": "16651", "id": "1840013429"}, {"city": "Athens", "city_ascii": "Athens", "lat": "32.2041", "lng": "-95.8321", "country": "United States", "iso2": "US", "iso3": "USA", "admin_name": "Texas", "capital": "", "population": "12753", "id": "1840019500"}, {"city": "Atherton", "city_ascii": "Atherton", "lat": "53.5230", "lng": "-2.4950", "country": "United Kingdom", "iso2": "GB", "iso3": "GBR", "admin_name": "Wigan", "capital": "", "population": "22000", "id": "1826022663"}, {"city": "Atherton", "city_ascii": "Atherton", "lat": "-17.2658", "lng": "145.4780", "country": "Australia", "iso2": "AU", "iso3": "AUS", "admin_name": "Queensland", "capital": "", "population": "7331", "id": "1036456869"}, {"city": "Atherton", "city_ascii": "Atherton", "lat": "37.4539", "lng": "-122.2032", "country": "United States", "iso2": "US", "iso3": "USA", "admin_name": "California", "capital": "", "population": "7137", "id": "1840020308"}, {"city": "Atlanta", "city_ascii": "Atlanta", "lat": "33.7627", "lng": "-84.4224", "country": "United States", "iso2": "US", "iso3": "USA", "admin_name": "Georgia", "capital": "admin", "population": "5449398", "id": "1840013660"}, {"city": "Atlanta", "city_ascii": "Atlanta", "lat": "33.1136", "lng": "-94.1672", "country": "United States", "iso2": "US", "iso3": "USA", "admin_name": "Texas", "capital": "", "population": "5526", "id": "1840019407"}, {"city": "Attica", "city_ascii": "Attica", "lat": "42.8257", "lng": "-78.2490", "country": "United States", "iso2": "US", "iso3": "USA", "admin_name": "New York", "capital": "", "population": "7117", "id": "1840004474"}, {"city": "Attica", "city_ascii": "Attica", "lat": "40.2874", "lng": "-87.2452", "country": "United States", "iso2": "US", "iso3": "USA", "admin_name": "Indiana", "capital": "", "population": "5187", "id": "1840007244"}, {"city": "Auburn", "city_ascii": "Auburn", "lat": "32.6087", "lng": "-85.4899", "country": "United States", "iso2": "US", "iso3": "USA", "admin_name": "Alabama", "capital": "", "population": "92777", "id": "1840013810"}, {"city": "Auburn", "city_ascii": "Auburn", "lat": "47.3039", "lng": "-122.2108", "country": "United States", "iso2": "US", "iso3": "USA", "admin_name": "Washington", "capital": "", "population": "81464", "id": "1840018416"}, {"city": "Auburn", "city_ascii": "Auburn", "lat": "38.8950", "lng": "-121.0778", "country": "United States", "iso2": "US", "iso3": "USA", "admin_name": "California", "capital": "", "population": "35311", "id": "1840010231"}, {"city": "Auburn", "city_ascii": "Auburn", "lat": "42.9338", "lng": "-76.5684", "country": "United States", "iso2": "US", "iso3": "USA", "admin_name": "New York", "capital": "", "population": "30507", "id": "1840000367"}, {"city": "Auburn", "city_ascii": "Auburn", "lat": "44.0850", "lng": "-70.2492", "country": "United States", "iso2": "US", "iso3": "USA", "admin_name": "Maine", "capital": "", "population": "23414", "id": "1840000319"}, {"city": "Auburn", "city_ascii": "Auburn", "lat": "41.3666", "lng": "-85.0559", "country": "United States", "iso2": "US", "iso3": "USA", "admin_name": "Indiana", "capital": "", "population": "22994", "id": "1840007100"}, {"city": "Auburn", "city_ascii": "Auburn", "lat": "42.1972", "lng": "-71.8453", "country": "United States", "iso2": "US", "iso3": "USA", "admin_name": "Massachusetts", "capital": "", "population": "16684", "id": "1840053684"}, {"city": "Auburn", "city_ascii": "Auburn", "lat": "34.0157", "lng": "-83.8319", "country": "United States", "iso2": "US", "iso3": "USA", "admin_name": "Georgia", "capital": "", "population": "7660", "id": "1840013680"}, {"city": "Auburn", "city_ascii": "Auburn", "lat": "42.9906", "lng": "-71.3438", "country": "United States", "iso2": "US", "iso3": "USA", "admin_name": "New Hampshire", "capital": "", "population": "5446", "id": "1840054548"}, {"city": "Audubon", "city_ascii": "Audubon", "lat": "40.1304", "lng": "-75.4280", "country": "United States", "iso2": "US", "iso3": "USA", "admin_name": "Pennsylvania", "capital": "", "population": "9163", "id": "1840034852"}, {"city": "Audubon", "city_ascii": "Audubon", "lat": "39.8906", "lng": "-75.0722", "country": "United States", "iso2": "US", "iso3": "USA", "admin_name": "New Jersey", "capital": "", "population": "8637", "id": "1840003775"}, {"city": "Auerbach", "city_ascii": "Auerbach", "lat": "50.5094", "lng": "12.4000", "country": "Germany", "iso2": "DE", "iso3": "DEU", "admin_name": "Saxony", "capital": "", "population": "18357", "id": "1276679224"}, {"city": "Auerbach", "city_ascii": "Auerbach", "lat": "49.6920", "lng": "11.6333", "country": "Germany", "iso2": "DE", "iso3": "DEU", "admin_name": "Bavaria", "capital": "", "population": "8818", "id": "1276188143"}, {"city": "Augusta", "city_ascii": "Augusta", "lat": "33.3645", "lng": "-82.0708", "country": "United States", "iso2": "US", "iso3": "USA", "admin_name": "Georgia", "capital": "", "population": "390809", "id": "1840029462"}, {"city": "Augusta", "city_ascii": "Augusta", "lat": "37.2303", "lng": "15.2194", "country": "Italy", "iso2": "IT", "iso3": "ITA", "admin_name": "Sicilia", "capital": "", "population": "35854", "id": "1380515752"}, {"city": "Augusta", "city_ascii": "Augusta", "lat": "44.3341", "lng": "-69.7319", "country": "United States", "iso2": "US", "iso3": "USA", "admin_name": "Maine", "capital": "admin", "population": "22116", "id": "1840000302"}, {"city": "Augusta", "city_ascii": "Augusta", "lat": "37.6955", "lng": "-96.9921", "country": "United States", "iso2": "US", "iso3": "USA", "admin_name": "Kansas", "capital": "", "population": "9422", "id": "1840001675"}, {"city": "Augusta", "city_ascii": "Augusta", "lat": "44.7511", "lng": "-75.6003", "country": "Canada", "iso2": "CA", "iso3": "CAN", "admin_name": "Ontario", "capital": "", "population": "7353", "id": "1124000619"}, {"city": "Aurang\u0101b\u0101d", "city_ascii": "Aurangabad", "lat": "19.8800", "lng": "75.3200", "country": "India", "iso2": "IN", "iso3": "IND", "admin_name": "Mah\u0101r\u0101shtra", "capital": "", "population": "1371330", "id": "1356840670"}, {"city": "Aurang\u0101b\u0101d", "city_ascii": "Aurangabad", "lat": "24.7704", "lng": "84.3800", "country": "India", "iso2": "IN", "iso3": "IND", "admin_name": "Bih\u0101r", "capital": "", "population": "95929", "id": "1356920493"}, {"city": "Aurora", "city_ascii": "Aurora", "lat": "39.7087", "lng": "-104.7273", "country": "United States", "iso2": "US", "iso3": "USA", "admin_name": "Colorado", "capital": "", "population": "379289", "id": "1840018794"}, {"city": "Aurora", "city_ascii": "Aurora", "lat": "41.7637", "lng": "-88.2901", "country": "United States", "iso2": "US", "iso3": "USA", "admin_name": "Illinois", "capital": "", "population": "197757", "id": "1840007034"}, {"city": "Aurora", "city_ascii": "Aurora", "lat": "13.3500", "lng": "122.5167", "country": "Philippines", "iso2": "PH", "iso3": "PHL", "admin_name": "Quezon", "capital": "", "population": "61473", "id": "1608074830"}, {"city": "Aurora", "city_ascii": "Aurora", "lat": "44.0000", "lng": "-79.4667", "country": "Canada", "iso2": "CA", "iso3": "CAN", "admin_name": "Ontario", "capital": "", "population": "55445", "id": "1124085034"}, {"city": "Aurora", "city_ascii": "Aurora", "lat": "7.9484", "lng": "123.5819", "country": "Philippines", "iso2": "PH", "iso3": "PHL", "admin_name": "Zamboanga del Sur", "capital": "", "population": "50755", "id": "1608800482"}, {"city": "Aurora", "city_ascii": "Aurora", "lat": "16.9918", "lng": "121.6357", "country": "Philippines", "iso2": "PH", "iso3": "PHL", "admin_name": "Isabela", "capital": "", "population": "35017", "id": "1608526044"}, {"city": "Aurora", "city_ascii": "Aurora", "lat": "-6.9428", "lng": "-38.9678", "country": "Brazil", "iso2": "BR", "iso3": "BRA", "admin_name": "Cear\u00e1", "capital": "", "population": "24610", "id": "1076635506"}, {"city": "Aurora", "city_ascii": "Aurora", "lat": "41.3118", "lng": "-81.3450", "country": "United States", "iso2": "US", "iso3": "USA", "admin_name": "Ohio", "capital": "", "population": "16338", "id": "1840000806"}, {"city": "Aurora", "city_ascii": "Aurora", "lat": "42.7382", "lng": "-78.6373", "country": "United States", "iso2": "US", "iso3": "USA", "admin_name": "New York", "capital": "", "population": "13783", "id": "1840150816"}, {"city": "Aurora", "city_ascii": "Aurora", "lat": "36.9674", "lng": "-93.7183", "country": "United States", "iso2": "US", "iso3": "USA", "admin_name": "Missouri", "capital": "", "population": "8297", "id": "1840007636"}, {"city": "Austin", "city_ascii": "Austin", "lat": "30.3004", "lng": "-97.7522", "country": "United States", "iso2": "US", "iso3": "USA", "admin_name": "Texas", "capital": "admin", "population": "1687311", "id": "1840019590"}, {"city": "Austin", "city_ascii": "Austin", "lat": "43.6718", "lng": "-92.9783", "country": "United States", "iso2": "US", "iso3": "USA", "admin_name": "Minnesota", "capital": "", "population": "25626", "id": "1840006830"}, {"city": "Aveiro", "city_ascii": "Aveiro", "lat": "40.6389", "lng": "-8.6553", "country": "Portugal", "iso2": "PT", "iso3": "PRT", "admin_name": "Aveiro", "capital": "admin", "population": "78450", "id": "1620555869"}, {"city": "Aveiro", "city_ascii": "Aveiro", "lat": "-3.6058", "lng": "-55.3319", "country": "Brazil", "iso2": "BR", "iso3": "BRA", "admin_name": "Par\u00e1", "capital": "", "population": "16404", "id": "1076478075"}, {"city": "Avellaneda", "city_ascii": "Avellaneda", "lat": "-34.6625", "lng": "-58.3678", "country": "Argentina", "iso2": "AR", "iso3": "ARG", "admin_name": "Buenos Aires", "capital": "minor", "population": "24313", "id": "1032478683"}, {"city": "Avellaneda", "city_ascii": "Avellaneda", "lat": "-29.1175", "lng": "-59.6583", "country": "Argentina", "iso2": "AR", "iso3": "ARG", "admin_name": "Santa Fe", "capital": "", "population": "23341", "id": "1032387319"}, {"city": "Avon", "city_ascii": "Avon", "lat": "41.4485", "lng": "-82.0187", "country": "United States", "iso2": "US", "iso3": "USA", "admin_name": "Ohio", "capital": "", "population": "23399", "id": "1840000641"}, {"city": "Avon", "city_ascii": "Avon", "lat": "39.7603", "lng": "-86.3917", "country": "United States", "iso2": "US", "iso3": "USA", "admin_name": "Indiana", "capital": "", "population": "18706", "id": "1840009535"}, {"city": "Avon", "city_ascii": "Avon", "lat": "41.7907", "lng": "-72.8538", "country": "United States", "iso2": "US", "iso3": "USA", "admin_name": "Connecticut", "capital": "", "population": "18312", "id": "1840034005"}, {"city": "Avon", "city_ascii": "Avon", "lat": "48.4089", "lng": "2.7250", "country": "France", "iso2": "FR", "iso3": "FRA", "admin_name": "\u00cele-de-France", "capital": "", "population": "13662", "id": "1250308885"}, {"city": "Avon", "city_ascii": "Avon", "lat": "42.8955", "lng": "-77.7341", "country": "United States", "iso2": "US", "iso3": "USA", "admin_name": "New York", "capital": "", "population": "6897", "id": "1840004428"}, {"city": "Avon", "city_ascii": "Avon", "lat": "39.6445", "lng": "-106.5133", "country": "United States", "iso2": "US", "iso3": "USA", "admin_name": "Colorado", "capital": "", "population": "6511", "id": "1840020194"}, {"city": "Avondale", "city_ascii": "Avondale", "lat": "33.3858", "lng": "-112.3236", "country": "United States", "iso2": "US", "iso3": "USA", "admin_name": "Arizona", "capital": "", "population": "227289", "id": "1840019310"}, {"city": "Avondale", "city_ascii": "Avondale", "lat": "29.9072", "lng": "-90.1933", "country": "United States", "iso2": "US", "iso3": "USA", "admin_name": "Louisiana", "capital": "", "population": "5321", "id": "1840013987"}, {"city": "Ayacucho", "city_ascii": "Ayacucho", "lat": "-13.1631", "lng": "-74.2244", "country": "Peru", "iso2": "PE", "iso3": "PER", "admin_name": "Ayacucho", "capital": "admin", "population": "180766", "id": "1604300430"}, {"city": "Ayacucho", "city_ascii": "Ayacucho", "lat": "-37.1525", "lng": "-58.4882", "country": "Argentina", "iso2": "AR", "iso3": "ARG", "admin_name": "Buenos Aires", "capital": "minor", "population": "17364", "id": "1032171567"}, {"city": "Ayr", "city_ascii": "Ayr", "lat": "55.4580", "lng": "-4.6290", "country": "United Kingdom", "iso2": "GB", "iso3": "GBR", "admin_name": "South Ayrshire", "capital": "", "population": "46490", "id": "1826430700"}, {"city": "Ayr", "city_ascii": "Ayr", "lat": "-19.5744", "lng": "147.4066", "country": "Australia", "iso2": "AU", "iso3": "AUS", "admin_name": "Queensland", "capital": "", "population": "8738", "id": "1036228772"}, {"city": "Babenhausen", "city_ascii": "Babenhausen", "lat": "49.9624", "lng": "8.9533", "country": "Germany", "iso2": "DE", "iso3": "DEU", "admin_name": "Hesse", "capital": "", "population": "16834", "id": "1276006345"}, {"city": "Babenhausen", "city_ascii": "Babenhausen", "lat": "48.1428", "lng": "10.2533", "country": "Germany", "iso2": "DE", "iso3": "DEU", "admin_name": "Bavaria", "capital": "", "population": "5628", "id": "1276652784"}, {"city": "Bacolod", "city_ascii": "Bacolod", "lat": "10.6765", "lng": "122.9509", "country": "Philippines", "iso2": "PH", "iso3": "PHL", "admin_name": "Bacolod", "capital": "admin", "population": "561875", "id": "1608244137"}, {"city": "Bacolod", "city_ascii": "Bacolod", "lat": "8.1892", "lng": "124.0238", "country": "Philippines", "iso2": "PH", "iso3": "PHL", "admin_name": "Lanao del Norte", "capital": "", "population": "23034", "id": "1608296127"}, {"city": "Bago", "city_ascii": "Bago", "lat": "17.3433", "lng": "96.4981", "country": "Myanmar", "iso2": "MM", "iso3": "MMR", "admin_name": "Bago", "capital": "admin", "population": "284179", "id": "1104027443"}, {"city": "Bago", "city_ascii": "Bago", "lat": "10.5388", "lng": "122.8384", "country": "Philippines", "iso2": "PH", "iso3": "PHL", "admin_name": "Negros Occidental", "capital": "", "population": "170981", "id": "1608943172"}, {"city": "Bai\u00e3o", "city_ascii": "Baiao", "lat": "-2.7908", "lng": "-49.6719", "country": "Brazil", "iso2": "BR", "iso3": "BRA", "admin_name": "Par\u00e1", "capital": "", "population": "48459", "id": "1076566352"}, {"city": "Bai\u00e3o", "city_ascii": "Baiao", "lat": "41.1667", "lng": "-8.0333", "country": "Portugal", "iso2": "PT", "iso3": "PRT", "admin_name": "Porto", "capital": "minor", "population": "20522", "id": "1620277576"}, {"city": "Baicheng", "city_ascii": "Baicheng", "lat": "23.9010", "lng": "106.6194", "country": "China", "iso2": "CN", "iso3": "CHN", "admin_name": "Guangxi", "capital": "minor", "population": "3466758", "id": "1156981113"}, {"city": "Baicheng", "city_ascii": "Baicheng", "lat": "45.6148", "lng": "122.8320", "country": "China", "iso2": "CN", "iso3": "CHN", "admin_name": "Jilin", "capital": "minor", "population": "386861", "id": "1156435764"}, {"city": "Baicheng", "city_ascii": "Baicheng", "lat": "41.7957", "lng": "81.8715", "country": "China", "iso2": "CN", "iso3": "CHN", "admin_name": "Xinjiang", "capital": "minor", "population": "49207", "id": "1156826835"}, {"city": "Baldwin", "city_ascii": "Baldwin", "lat": "40.6634", "lng": "-73.6104", "country": "United States", "iso2": "US", "iso3": "USA", "admin_name": "New York", "capital": "", "population": "24727", "id": "1840005228"}, {"city": "Baldwin", "city_ascii": "Baldwin", "lat": "40.3690", "lng": "-79.9668", "country": "United States", "iso2": "US", "iso3": "USA", "admin_name": "Pennsylvania", "capital": "", "population": "19554", "id": "1840001201"}, {"city": "Baldwin", "city_ascii": "Baldwin", "lat": "44.9540", "lng": "-92.3709", "country": "United States", "iso2": "US", "iso3": "USA", "admin_name": "Wisconsin", "capital": "", "population": "6000", "id": "1840002136"}, {"city": "Balete", "city_ascii": "Balete", "lat": "11.5500", "lng": "122.3833", "country": "Philippines", "iso2": "PH", "iso3": "PHL", "admin_name": "Aklan", "capital": "", "population": "28920", "id": "1608488735"}, {"city": "Balete", "city_ascii": "Balete", "lat": "14.0167", "lng": "121.1000", "country": "Philippines", "iso2": "PH", "iso3": "PHL", "admin_name": "Batangas", "capital": "", "population": "22661", "id": "1608299609"}, {"city": "Balimbing", "city_ascii": "Balimbing", "lat": "5.0728", "lng": "119.8847", "country": "Philippines", "iso2": "PH", "iso3": "PHL", "admin_name": "Tawi-Tawi", "capital": "", "population": "44184", "id": "1608866055"}, {"city": "Balimbing", "city_ascii": "Balimbing", "lat": "7.9000", "lng": "123.8500", "country": "Philippines", "iso2": "PH", "iso3": "PHL", "admin_name": "Lanao del Norte", "capital": "", "population": "31845", "id": "1608968849"}, {"city": "Ban Duea", "city_ascii": "Ban Duea", "lat": "16.1253", "lng": "101.8967", "country": "Thailand", "iso2": "TH", "iso3": "THA", "admin_name": "Chaiyaphum", "capital": "", "population": "15524", "id": "1764693756"}, {"city": "Ban Duea", "city_ascii": "Ban Duea", "lat": "17.9814", "lng": "102.9912", "country": "Thailand", "iso2": "TH", "iso3": "THA", "admin_name": "Nong Khai", "capital": "", "population": "7426", "id": "1764001206"}, {"city": "Banga", "city_ascii": "Banga", "lat": "6.3000", "lng": "124.7833", "country": "Philippines", "iso2": "PH", "iso3": "PHL", "admin_name": "South Cotabato", "capital": "", "population": "83989", "id": "1608545440"}, {"city": "Ba\u00f1ga", "city_ascii": "Banga", "lat": "11.6333", "lng": "122.3333", "country": "Philippines", "iso2": "PH", "iso3": "PHL", "admin_name": "Aklan", "capital": "", "population": "39505", "id": "1608293619"}, {"city": "Bangar", "city_ascii": "Bangar", "lat": "16.9000", "lng": "120.4167", "country": "Philippines", "iso2": "PH", "iso3": "PHL", "admin_name": "La Union", "capital": "", "population": "35947", "id": "1608636378"}, {"city": "Bangar", "city_ascii": "Bangar", "lat": "4.7086", "lng": "115.0739", "country": "Brunei", "iso2": "BN", "iso3": "BRN", "admin_name": "Temburong", "capital": "admin", "population": "626", "id": "1096321221"}, {"city": "Bangor", "city_ascii": "Bangor", "lat": "54.6600", "lng": "-5.6700", "country": "United Kingdom", "iso2": "GB", "iso3": "GBR", "admin_name": "Ards and North Down", "capital": "", "population": "61011", "id": "1826282262"}, {"city": "Bangor", "city_ascii": "Bangor", "lat": "44.8322", "lng": "-68.7906", "country": "United States", "iso2": "US", "iso3": "USA", "admin_name": "Maine", "capital": "", "population": "59772", "id": "1840000238"}, {"city": "Bangor", "city_ascii": "Bangor", "lat": "53.2280", "lng": "-4.1280", "country": "United Kingdom", "iso2": "GB", "iso3": "GBR", "admin_name": "Isle of Anglesey", "capital": "", "population": "16358", "id": "1826969137"}, {"city": "Bangor", "city_ascii": "Bangor", "lat": "40.8678", "lng": "-75.2085", "country": "United States", "iso2": "US", "iso3": "USA", "admin_name": "Pennsylvania", "capital": "", "population": "5228", "id": "1840000966"}, {"city": "Bangui", "city_ascii": "Bangui", "lat": "4.3732", "lng": "18.5628", "country": "Central African Republic", "iso2": "CF", "iso3": "CAF", "admin_name": "Bangui", "capital": "primary", "population": "889231", "id": "1140080881"}, {"city": "Bangui", "city_ascii": "Bangui", "lat": "18.5333", "lng": "120.7667", "country": "Philippines", "iso2": "PH", "iso3": "PHL", "admin_name": "Ilocos Norte", "capital": "", "population": "14672", "id": "1608972484"}, {"city": "Ban\u00ed", "city_ascii": "Bani", "lat": "18.2900", "lng": "-70.3300", "country": "Dominican Republic", "iso2": "DO", "iso3": "DOM", "admin_name": "Valdesia", "capital": "minor", "population": "145595", "id": "1214720035"}, {"city": "Bani", "city_ascii": "Bani", "lat": "16.1869", "lng": "119.8592", "country": "Philippines", "iso2": "PH", "iso3": "PHL", "admin_name": "Pangasinan", "capital": "", "population": "50306", "id": "1608695660"}, {"city": "Bannockburn", "city_ascii": "Bannockburn", "lat": "56.0900", "lng": "-3.9100", "country": "United Kingdom", "iso2": "GB", "iso3": "GBR", "admin_name": "Stirling", "capital": "", "population": "7352", "id": "1826144957"}, {"city": "Bannockburn", "city_ascii": "Bannockburn", "lat": "-38.0500", "lng": "144.1667", "country": "Australia", "iso2": "AU", "iso3": "AUS", "admin_name": "Victoria", "capital": "", "population": "5283", "id": "1036085175"}, {"city": "Banqiao", "city_ascii": "Banqiao", "lat": "35.8912", "lng": "107.9655", "country": "China", "iso2": "CN", "iso3": "CHN", "admin_name": "Gansu", "capital": "", "population": "15486", "id": "1156805029"}, {"city": "Banqiao", "city_ascii": "Banqiao", "lat": "25.0143", "lng": "121.4672", "country": "Taiwan", "iso2": "TW", "iso3": "TWN", "admin_name": "New Taipei", "capital": "admin", "population": "", "id": "1158987347"}, {"city": "Bar", "city_ascii": "Bar", "lat": "49.0781", "lng": "27.6831", "country": "Ukraine", "iso2": "UA", "iso3": "UKR", "admin_name": "Vinnyts\u2019ka Oblast\u2019", "capital": "minor", "population": "16136", "id": "1804657070"}, {"city": "Bar", "city_ascii": "Bar", "lat": "42.1000", "lng": "19.1000", "country": "Montenegro", "iso2": "ME", "iso3": "MNE", "admin_name": "Bar", "capital": "admin", "population": "13719", "id": "1499197266"}, {"city": "Baras", "city_ascii": "Baras", "lat": "14.5167", "lng": "121.2667", "country": "Philippines", "iso2": "PH", "iso3": "PHL", "admin_name": "Rizal", "capital": "", "population": "69300", "id": "1608108994"}, {"city": "Baras", "city_ascii": "Baras", "lat": "13.6667", "lng": "124.3667", "country": "Philippines", "iso2": "PH", "iso3": "PHL", "admin_name": "Catanduanes", "capital": "", "population": "12848", "id": "1608759660"}, {"city": "Barberton", "city_ascii": "Barberton", "lat": "41.0094", "lng": "-81.6038", "country": "United States", "iso2": "US", "iso3": "USA", "admin_name": "Ohio", "capital": "", "population": "25953", "id": "1840000792"}, {"city": "Barberton", "city_ascii": "Barberton", "lat": "45.7136", "lng": "-122.6115", "country": "United States", "iso2": "US", "iso3": "USA", "admin_name": "Washington", "capital": "", "population": "6981", "id": "1840017397"}, {"city": "Barbosa", "city_ascii": "Barbosa", "lat": "6.4375", "lng": "-75.3306", "country": "Colombia", "iso2": "CO", "iso3": "COL", "admin_name": "Antioquia", "capital": "minor", "population": "53167", "id": "1170859178"}, {"city": "Barbosa", "city_ascii": "Barbosa", "lat": "5.9331", "lng": "-73.6147", "country": "Colombia", "iso2": "CO", "iso3": "COL", "admin_name": "Santander", "capital": "minor", "population": "29581", "id": "1170376059"}, {"city": "Barcelona", "city_ascii": "Barcelona", "lat": "41.3825", "lng": "2.1769", "country": "Spain", "iso2": "ES", "iso3": "ESP", "admin_name": "Catalonia", "capital": "admin", "population": "4588000", "id": "1724594040"}, {"city": "Barcelona", "city_ascii": "Barcelona", "lat": "10.1333", "lng": "-64.6833", "country": "Venezuela", "iso2": "VE", "iso3": "VEN", "admin_name": "Anzo\u00e1tegui", "capital": "admin", "population": "448016", "id": "1862418619"}, {"city": "Barcelona", "city_ascii": "Barcelona", "lat": "12.8667", "lng": "124.1333", "country": "Philippines", "iso2": "PH", "iso3": "PHL", "admin_name": "Sorsogon", "capital": "", "population": "20990", "id": "1608408567"}, {"city": "Barra de S\u00e3o Miguel", "city_ascii": "Barra de Sao Miguel", "lat": "-9.8333", "lng": "-35.9000", "country": "Brazil", "iso2": "BR", "iso3": "BRA", "admin_name": "Alagoas", "capital": "", "population": "8401", "id": "1076702255"}, {"city": "Barra de S\u00e3o Miguel", "city_ascii": "Barra de Sao Miguel", "lat": "-7.7508", "lng": "-36.3178", "country": "Brazil", "iso2": "BR", "iso3": "BRA", "admin_name": "Para\u00edba", "capital": "", "population": "5905", "id": "1076787551"}, {"city": "Barre", "city_ascii": "Barre", "lat": "44.1997", "lng": "-72.5083", "country": "United States", "iso2": "US", "iso3": "USA", "admin_name": "Vermont", "capital": "", "population": "20421", "id": "1840002186"}, {"city": "Barre", "city_ascii": "Barre", "lat": "42.4201", "lng": "-72.1061", "country": "United States", "iso2": "US", "iso3": "USA", "admin_name": "Massachusetts", "capital": "", "population": "5539", "id": "1840053685"}, {"city": "Barrington", "city_ascii": "Barrington", "lat": "41.7443", "lng": "-71.3145", "country": "United States", "iso2": "US", "iso3": "USA", "admin_name": "Rhode Island", "capital": "", "population": "16131", "id": "1840106239"}, {"city": "Barrington", "city_ascii": "Barrington", "lat": "42.1515", "lng": "-88.1281", "country": "United States", "iso2": "US", "iso3": "USA", "admin_name": "Illinois", "capital": "", "population": "10217", "id": "1840011244"}, {"city": "Barrington", "city_ascii": "Barrington", "lat": "43.2139", "lng": "-71.0424", "country": "United States", "iso2": "US", "iso3": "USA", "admin_name": "New Hampshire", "capital": "", "population": "9063", "id": "1840018720"}, {"city": "Barrington", "city_ascii": "Barrington", "lat": "43.5646", "lng": "-65.5639", "country": "Canada", "iso2": "CA", "iso3": "CAN", "admin_name": "Nova Scotia", "capital": "", "population": "6646", "id": "1124548310"}, {"city": "Barrington", "city_ascii": "Barrington", "lat": "39.8689", "lng": "-75.0514", "country": "United States", "iso2": "US", "iso3": "USA", "admin_name": "New Jersey", "capital": "", "population": "6642", "id": "1840003771"}, {"city": "Bartlett", "city_ascii": "Bartlett", "lat": "35.2337", "lng": "-89.8195", "country": "United States", "iso2": "US", "iso3": "USA", "admin_name": "Tennessee", "capital": "", "population": "59440", "id": "1840013472"}, {"city": "Bartlett", "city_ascii": "Bartlett", "lat": "41.9803", "lng": "-88.2069", "country": "United States", "iso2": "US", "iso3": "USA", "admin_name": "Illinois", "capital": "", "population": "40647", "id": "1840011246"}, {"city": "Bastrop", "city_ascii": "Bastrop", "lat": "30.1118", "lng": "-97.3257", "country": "United States", "iso2": "US", "iso3": "USA", "admin_name": "Texas", "capital": "", "population": "17120", "id": "1840019603"}, {"city": "Bastrop", "city_ascii": "Bastrop", "lat": "32.7749", "lng": "-91.9058", "country": "United States", "iso2": "US", "iso3": "USA", "admin_name": "Louisiana", "capital": "", "population": "12327", "id": "1840013793"}, {"city": "Batalha", "city_ascii": "Batalha", "lat": "-4.0239", "lng": "-42.0778", "country": "Brazil", "iso2": "BR", "iso3": "BRA", "admin_name": "Piau\u00ed", "capital": "", "population": "26905", "id": "1076539157"}, {"city": "Batalha", "city_ascii": "Batalha", "lat": "-9.6778", "lng": "-37.1247", "country": "Brazil", "iso2": "BR", "iso3": "BRA", "admin_name": "Alagoas", "capital": "", "population": "18757", "id": "1076863522"}, {"city": "Batavia", "city_ascii": "Batavia", "lat": "41.8479", "lng": "-88.3110", "country": "United States", "iso2": "US", "iso3": "USA", "admin_name": "Illinois", "capital": "", "population": "26420", "id": "1840007035"}, {"city": "Batavia", "city_ascii": "Batavia", "lat": "42.9987", "lng": "-78.1802", "country": "United States", "iso2": "US", "iso3": "USA", "admin_name": "New York", "capital": "", "population": "16581", "id": "1840000385"}, {"city": "Batesville", "city_ascii": "Batesville", "lat": "35.7687", "lng": "-91.6226", "country": "United States", "iso2": "US", "iso3": "USA", "admin_name": "Arkansas", "capital": "", "population": "12220", "id": "1840013398"}, {"city": "Batesville", "city_ascii": "Batesville", "lat": "39.2974", "lng": "-85.2139", "country": "United States", "iso2": "US", "iso3": "USA", "admin_name": "Indiana", "capital": "", "population": "7930", "id": "1840007379"}, {"city": "Batesville", "city_ascii": "Batesville", "lat": "34.3147", "lng": "-89.9249", "country": "United States", "iso2": "US", "iso3": "USA", "admin_name": "Mississippi", "capital": "", "population": "7218", "id": "1840013607"}, {"city": "Bath", "city_ascii": "Bath", "lat": "51.3800", "lng": "-2.3600", "country": "United Kingdom", "iso2": "GB", "iso3": "GBR", "admin_name": "Bath and North East Somerset", "capital": "", "population": "88859", "id": "1826611282"}, {"city": "Bath", "city_ascii": "Bath", "lat": "42.3219", "lng": "-77.3083", "country": "United States", "iso2": "US", "iso3": "USA", "admin_name": "New York", "capital": "", "population": "12029", "id": "1840004559"}, {"city": "Bath", "city_ascii": "Bath", "lat": "43.9346", "lng": "-69.8346", "country": "United States", "iso2": "US", "iso3": "USA", "admin_name": "Maine", "capital": "", "population": "8338", "id": "1840000332"}, {"city": "Bathurst", "city_ascii": "Bathurst", "lat": "-33.4200", "lng": "149.5778", "country": "Australia", "iso2": "AU", "iso3": "AUS", "admin_name": "New South Wales", "capital": "", "population": "36801", "id": "1036446465"}, {"city": "Bathurst", "city_ascii": "Bathurst", "lat": "47.6200", "lng": "-65.6500", "country": "Canada", "iso2": "CA", "iso3": "CAN", "admin_name": "New Brunswick", "capital": "", "population": "18154", "id": "1124816720"}, {"city": "Bato", "city_ascii": "Bato", "lat": "13.3561", "lng": "123.3639", "country": "Philippines", "iso2": "PH", "iso3": "PHL", "admin_name": "Camarines Sur", "capital": "", "population": "52137", "id": "1608558575"}, {"city": "Bato", "city_ascii": "Bato", "lat": "13.6000", "lng": "124.3000", "country": "Philippines", "iso2": "PH", "iso3": "PHL", "admin_name": "Catanduanes", "capital": "", "population": "21279", "id": "1608668224"}, {"city": "Batuan", "city_ascii": "Batuan", "lat": "12.4167", "lng": "123.7667", "country": "Philippines", "iso2": "PH", "iso3": "PHL", "admin_name": "Masbate", "capital": "", "population": "15086", "id": "1608145736"}, {"city": "Batuan", "city_ascii": "Batuan", "lat": "9.8000", "lng": "124.1333", "country": "Philippines", "iso2": "PH", "iso3": "PHL", "admin_name": "Bohol", "capital": "", "population": "12767", "id": "1608180055"}, {"city": "Bay City", "city_ascii": "Bay City", "lat": "43.5903", "lng": "-83.8886", "country": "United States", "iso2": "US", "iso3": "USA", "admin_name": "Michigan", "capital": "", "population": "66107", "id": "1840002583"}, {"city": "Bay City", "city_ascii": "Bay City", "lat": "28.9838", "lng": "-95.9601", "country": "United States", "iso2": "US", "iso3": "USA", "admin_name": "Texas", "capital": "", "population": "18661", "id": "1840019682"}, {"city": "Bayeux", "city_ascii": "Bayeux", "lat": "-7.1333", "lng": "-34.9333", "country": "Brazil", "iso2": "BR", "iso3": "BRA", "admin_name": "Para\u00edba", "capital": "", "population": "96140", "id": "1076607187"}, {"city": "Bayeux", "city_ascii": "Bayeux", "lat": "49.2786", "lng": "-0.7039", "country": "France", "iso2": "FR", "iso3": "FRA", "admin_name": "Normandie", "capital": "minor", "population": "13017", "id": "1250138472"}, {"city": "Bayonne", "city_ascii": "Bayonne", "lat": "40.6661", "lng": "-74.1141", "country": "United States", "iso2": "US", "iso3": "USA", "admin_name": "New Jersey", "capital": "", "population": "64897", "id": "1840003595"}, {"city": "Bayonne", "city_ascii": "Bayonne", "lat": "43.4900", "lng": "-1.4800", "country": "France", "iso2": "FR", "iso3": "FRA", "admin_name": "Nouvelle-Aquitaine", "capital": "minor", "population": "51228", "id": "1250223048"}, {"city": "Bazhou", "city_ascii": "Bazhou", "lat": "31.8576", "lng": "106.7559", "country": "China", "iso2": "CN", "iso3": "CHN", "admin_name": "Sichuan", "capital": "minor", "population": "3134000", "id": "1156271365"}, {"city": "Bazhou", "city_ascii": "Bazhou", "lat": "39.1235", "lng": "116.3860", "country": "China", "iso2": "CN", "iso3": "CHN", "admin_name": "Hebei", "capital": "", "population": "622975", "id": "1156127276"}, {"city": "Beachwood", "city_ascii": "Beachwood", "lat": "41.4759", "lng": "-81.5030", "country": "United States", "iso2": "US", "iso3": "USA", "admin_name": "Ohio", "capital": "", "population": "11590", "id": "1840003395"}, {"city": "Beachwood", "city_ascii": "Beachwood", "lat": "39.9286", "lng": "-74.2023", "country": "United States", "iso2": "US", "iso3": "USA", "admin_name": "New Jersey", "capital": "", "population": "11312", "id": "1840001483"}, {"city": "Beaconsfield", "city_ascii": "Beaconsfield", "lat": "45.4333", "lng": "-73.8667", "country": "Canada", "iso2": "CA", "iso3": "CAN", "admin_name": "Quebec", "capital": "", "population": "19115", "id": "1124755118"}, {"city": "Beaconsfield", "city_ascii": "Beaconsfield", "lat": "51.6009", "lng": "-0.6347", "country": "United Kingdom", "iso2": "GB", "iso3": "GBR", "admin_name": "Buckinghamshire", "capital": "", "population": "12081", "id": "1826964711"}, {"city": "Beaumont", "city_ascii": "Beaumont", "lat": "30.0849", "lng": "-94.1451", "country": "United States", "iso2": "US", "iso3": "USA", "admin_name": "Texas", "capital": "", "population": "146091", "id": "1840019612"}, {"city": "Beaumont", "city_ascii": "Beaumont", "lat": "33.9076", "lng": "-116.9766", "country": "United States", "iso2": "US", "iso3": "USA", "admin_name": "California", "capital": "", "population": "51063", "id": "1840019298"}, {"city": "Beaumont", "city_ascii": "Beaumont", "lat": "53.3572", "lng": "-113.4147", "country": "Canada", "iso2": "CA", "iso3": "CAN", "admin_name": "Alberta", "capital": "", "population": "17396", "id": "1124001210"}, {"city": "Beaumont", "city_ascii": "Beaumont", "lat": "45.7517", "lng": "3.0831", "country": "France", "iso2": "FR", "iso3": "FRA", "admin_name": "Auvergne-Rh\u00f4ne-Alpes", "capital": "", "population": "10793", "id": "1250295985"}, {"city": "Beaumont", "city_ascii": "Beaumont", "lat": "50.2355", "lng": "4.2383", "country": "Belgium", "iso2": "BE", "iso3": "BEL", "admin_name": "Wallonia", "capital": "", "population": "7137", "id": "1056521734"}, {"city": "Beaver Dam", "city_ascii": "Beaver Dam", "lat": "43.4690", "lng": "-88.8308", "country": "United States", "iso2": "US", "iso3": "USA", "admin_name": "Wisconsin", "capital": "", "population": "18041", "id": "1840002738"}, {"city": "Beaver Dam", "city_ascii": "Beaver Dam", "lat": "37.4042", "lng": "-86.8742", "country": "United States", "iso2": "US", "iso3": "USA", "admin_name": "Kentucky", "capital": "", "population": "6621", "id": "1840013232"}, {"city": "Bedburg", "city_ascii": "Bedburg", "lat": "51.0000", "lng": "6.5625", "country": "Germany", "iso2": "DE", "iso3": "DEU", "admin_name": "North Rhine-Westphalia", "capital": "", "population": "23531", "id": "1276409548"}, {"city": "Bedburg", "city_ascii": "Bedburg", "lat": "51.7667", "lng": "6.1833", "country": "Germany", "iso2": "DE", "iso3": "DEU", "admin_name": "North Rhine-Westphalia", "capital": "", "population": "12933", "id": "1276539122"}, {"city": "Bedford", "city_ascii": "Bedford", "lat": "52.1350", "lng": "-0.4700", "country": "United Kingdom", "iso2": "GB", "iso3": "GBR", "admin_name": "Bedford", "capital": "", "population": "106940", "id": "1826771105"}, {"city": "Bedford", "city_ascii": "Bedford", "lat": "32.8464", "lng": "-97.1350", "country": "United States", "iso2": "US", "iso3": "USA", "admin_name": "Texas", "capital": "", "population": "49049", "id": "1840019424"}, {"city": "Bedford", "city_ascii": "Bedford", "lat": "42.9407", "lng": "-71.5302", "country": "United States", "iso2": "US", "iso3": "USA", "admin_name": "New Hampshire", "capital": "", "population": "22535", "id": "1840054623"}, {"city": "Bedford", "city_ascii": "Bedford", "lat": "41.2250", "lng": "-73.6678", "country": "United States", "iso2": "US", "iso3": "USA", "admin_name": "New York", "capital": "", "population": "17803", "id": "1840057226"}, {"city": "Bedford", "city_ascii": "Bedford", "lat": "38.8602", "lng": "-86.4895", "country": "United States", "iso2": "US", "iso3": "USA", "admin_name": "Indiana", "capital": "", "population": "14752", "id": "1840007426"}, {"city": "Bedford", "city_ascii": "Bedford", "lat": "42.4970", "lng": "-71.2783", "country": "United States", "iso2": "US", "iso3": "USA", "admin_name": "Massachusetts", "capital": "", "population": "14142", "id": "1840053633"}, {"city": "Bedford", "city_ascii": "Bedford", "lat": "41.3919", "lng": "-81.5359", "country": "United States", "iso2": "US", "iso3": "USA", "admin_name": "Ohio", "capital": "", "population": "12457", "id": "1840003396"}, {"city": "Bedford", "city_ascii": "Bedford", "lat": "37.3360", "lng": "-79.5179", "country": "United States", "iso2": "US", "iso3": "USA", "admin_name": "Virginia", "capital": "", "population": "7240", "id": "1840001713"}, {"city": "Bedford", "city_ascii": "Bedford", "lat": "40.0456", "lng": "-78.4998", "country": "United States", "iso2": "US", "iso3": "USA", "admin_name": "Pennsylvania", "capital": "", "population": "5171", "id": "1840001396"}, {"city": "Bedminster", "city_ascii": "Bedminster", "lat": "40.6693", "lng": "-74.6824", "country": "United States", "iso2": "US", "iso3": "USA", "admin_name": "New Jersey", "capital": "", "population": "8045", "id": "1840081706"}, {"city": "Bedminster", "city_ascii": "Bedminster", "lat": "40.4223", "lng": "-75.1938", "country": "United States", "iso2": "US", "iso3": "USA", "admin_name": "Pennsylvania", "capital": "", "population": "7128", "id": "1840098454"}, {"city": "B\u00e9ja", "city_ascii": "Beja", "lat": "36.7256", "lng": "9.1817", "country": "Tunisia", "iso2": "TN", "iso3": "TUN", "admin_name": "B\u00e9ja", "capital": "admin", "population": "109299", "id": "1788225711"}, {"city": "Beja", "city_ascii": "Beja", "lat": "38.0333", "lng": "-7.8833", "country": "Portugal", "iso2": "PT", "iso3": "PRT", "admin_name": "Beja", "capital": "admin", "population": "35854", "id": "1620050458"}, {"city": "Bel\u00e9m", "city_ascii": "Belem", "lat": "-1.4558", "lng": "-48.5039", "country": "Brazil", "iso2": "BR", "iso3": "BRA", "admin_name": "Par\u00e1", "capital": "admin", "population": "1499641", "id": "1076646823"}, {"city": "Bel\u00e9m", "city_ascii": "Belem", "lat": "-6.7469", "lng": "-35.5189", "country": "Brazil", "iso2": "BR", "iso3": "BRA", "admin_name": "Para\u00edba", "capital": "", "population": "17594", "id": "1076976694"}, {"city": "Belen", "city_ascii": "Belen", "lat": "36.4917", "lng": "36.1917", "country": "Turkey", "iso2": "TR", "iso3": "TUR", "admin_name": "Hatay", "capital": "minor", "population": "33540", "id": "1792296962"}, {"city": "Bel\u00e9n", "city_ascii": "Belen", "lat": "-23.4695", "lng": "-57.2400", "country": "Paraguay", "iso2": "PY", "iso3": "PRY", "admin_name": "Concepci\u00f3n", "capital": "", "population": "11359", "id": "1600551990"}, {"city": "Bel\u00e9n", "city_ascii": "Belen", "lat": "-27.6496", "lng": "-67.0333", "country": "Argentina", "iso2": "AR", "iso3": "ARG", "admin_name": "Catamarca", "capital": "minor", "population": "11359", "id": "1032969950"}, {"city": "Belen", "city_ascii": "Belen", "lat": "34.7115", "lng": "-106.7985", "country": "United States", "iso2": "US", "iso3": "USA", "admin_name": "New Mexico", "capital": "", "population": "7416", "id": "1840019194"}, {"city": "Belfast", "city_ascii": "Belfast", "lat": "54.5964", "lng": "-5.9300", "country": "United Kingdom", "iso2": "GB", "iso3": "GBR", "admin_name": "Belfast", "capital": "", "population": "333871", "id": "1826325087"}, {"city": "Belfast", "city_ascii": "Belfast", "lat": "44.4280", "lng": "-69.0325", "country": "United States", "iso2": "US", "iso3": "USA", "admin_name": "Maine", "capital": "", "population": "6679", "id": "1840000300"}, {"city": "Belgrade", "city_ascii": "Belgrade", "lat": "44.8167", "lng": "20.4667", "country": "Serbia", "iso2": "RS", "iso3": "SRB", "admin_name": "Beograd", "capital": "primary", "population": "1378682", "id": "1688374696"}, {"city": "Belgrade", "city_ascii": "Belgrade", "lat": "45.7796", "lng": "-111.1751", "country": "United States", "iso2": "US", "iso3": "USA", "admin_name": "Montana", "capital": "", "population": "17743", "id": "1840018508"}, {"city": "Bella Vista", "city_ascii": "Bella Vista", "lat": "-34.5333", "lng": "-58.6667", "country": "Argentina", "iso2": "AR", "iso3": "ARG", "admin_name": "Buenos Aires", "capital": "", "population": "72000", "id": "1032720412"}, {"city": "Bella Vista", "city_ascii": "Bella Vista", "lat": "36.4667", "lng": "-94.2707", "country": "United States", "iso2": "US", "iso3": "USA", "admin_name": "Arkansas", "capital": "", "population": "28872", "id": "1840015287"}, {"city": "Bella Vista", "city_ascii": "Bella Vista", "lat": "-22.1296", "lng": "-56.5200", "country": "Paraguay", "iso2": "PY", "iso3": "PRY", "admin_name": "Amambay", "capital": "", "population": "16852", "id": "1600430147"}, {"city": "Belleville", "city_ascii": "Belleville", "lat": "44.1667", "lng": "-77.3833", "country": "Canada", "iso2": "CA", "iso3": "CAN", "admin_name": "Ontario", "capital": "", "population": "50716", "id": "1124786959"}, {"city": "Belleville", "city_ascii": "Belleville", "lat": "38.5165", "lng": "-89.9900", "country": "United States", "iso2": "US", "iso3": "USA", "admin_name": "Illinois", "capital": "", "population": "40897", "id": "1840007486"}, {"city": "Belleville", "city_ascii": "Belleville", "lat": "40.7950", "lng": "-74.1616", "country": "United States", "iso2": "US", "iso3": "USA", "admin_name": "New Jersey", "capital": "", "population": "36181", "id": "1840131591"}, {"city": "Belleville", "city_ascii": "Belleville", "lat": "46.1086", "lng": "4.7492", "country": "France", "iso2": "FR", "iso3": "FRA", "admin_name": "Auvergne-Rh\u00f4ne-Alpes", "capital": "", "population": "8198", "id": "1250644366"}, {"city": "Bellevue", "city_ascii": "Bellevue", "lat": "47.5951", "lng": "-122.1535", "country": "United States", "iso2": "US", "iso3": "USA", "admin_name": "Washington", "capital": "", "population": "148164", "id": "1840018417"}, {"city": "Bellevue", "city_ascii": "Bellevue", "lat": "41.1535", "lng": "-95.9357", "country": "United States", "iso2": "US", "iso3": "USA", "admin_name": "Nebraska", "capital": "", "population": "53544", "id": "1840007142"}, {"city": "Bellevue", "city_ascii": "Bellevue", "lat": "44.4593", "lng": "-87.9554", "country": "United States", "iso2": "US", "iso3": "USA", "admin_name": "Wisconsin", "capital": "", "population": "15944", "id": "1840000308"}, {"city": "Bellevue", "city_ascii": "Bellevue", "lat": "41.2743", "lng": "-82.8394", "country": "United States", "iso2": "US", "iso3": "USA", "admin_name": "Ohio", "capital": "", "population": "8094", "id": "1840000654"},